{
 "generated_at": "2026-07-20T09:55:29.047171+00:00",
 "lieux": [
  {
   "slug": "piscine-des-amiraux",
   "name": "Piscine des Amiraux",
   "kind_fr": "Piscine",
   "famille": "sport",
   "arrondissement": 18,
   "lat": 48.8926,
   "lon": 2.3557,
   "n_lieu": 13,
   "n_moments": 6,
   "argent_total_eur": 7970280,
   "depuis": 1965,
   "photo": "/img/lieux/piscine-des-amiraux.jpg"
  },
  {
   "slug": "philharmonie-de-paris",
   "name": "Philharmonie de Paris",
   "kind_fr": "Salle de concert",
   "famille": "culture",
   "arrondissement": 19,
   "lat": 48.8908,
   "lon": 2.3939,
   "n_lieu": 34,
   "n_moments": 8,
   "argent_total_eur": 112115105,
   "depuis": 2006,
   "photo": "/img/lieux/philharmonie-de-paris.jpg"
  },
  {
   "slug": "theatre-de-la-ville",
   "name": "Théâtre de la Ville",
   "kind_fr": "Théâtre",
   "famille": "culture",
   "arrondissement": 4,
   "lat": 48.8574,
   "lon": 2.3477,
   "n_lieu": 32,
   "n_moments": 8,
   "argent_total_eur": 125487090,
   "depuis": 1996,
   "photo": "/img/lieux/theatre-de-la-ville.jpg"
  },
  {
   "slug": "porte-maillot",
   "name": "Porte Maillot",
   "kind_fr": "Place",
   "famille": "urbain",
   "arrondissement": 16,
   "lat": 48.8781,
   "lon": 2.2822,
   "n_lieu": 36,
   "n_moments": 8,
   "argent_total_eur": 17908153,
   "depuis": 1889,
   "photo": "/img/lieux/porte-maillot.jpg"
  },
  {
   "slug": "piscine-butte-aux-cailles",
   "name": "Piscine de la Butte-aux-Cailles",
   "kind_fr": "Piscine",
   "famille": "sport",
   "arrondissement": 13,
   "lat": 48.8265,
   "lon": 2.3524,
   "n_lieu": 3,
   "n_moments": 3,
   "argent_total_eur": 42761,
   "depuis": 1995,
   "photo": "/img/lieux/piscine-butte-aux-cailles.jpg"
  },
  {
   "slug": "parc-des-buttes-chaumont",
   "name": "Parc des Buttes-Chaumont",
   "kind_fr": "Parc",
   "famille": "vert",
   "arrondissement": 19,
   "lat": 48.8809,
   "lon": 2.3819,
   "n_lieu": 23,
   "n_moments": 8,
   "argent_total_eur": 97867515,
   "depuis": 1898,
   "photo": "/img/lieux/parc-des-buttes-chaumont.jpg"
  },
  {
   "slug": "tour-saint-jacques",
   "name": "Tour Saint-Jacques",
   "kind_fr": "Monument",
   "famille": "urbain",
   "arrondissement": 4,
   "lat": 48.8579,
   "lon": 2.3489,
   "n_lieu": 7,
   "n_moments": 7,
   "argent_total_eur": 0,
   "depuis": 1995,
   "photo": "/img/lieux/tour-saint-jacques.jpg"
  },
  {
   "slug": "marche-des-enfants-rouges",
   "name": "Marché des Enfants-Rouges",
   "kind_fr": "Marché couvert",
   "famille": "services",
   "arrondissement": 3,
   "lat": 48.8628,
   "lon": 2.3623,
   "n_lieu": 12,
   "n_moments": 8,
   "argent_total_eur": 99552,
   "depuis": 1996,
   "photo": "/img/lieux/marche-des-enfants-rouges.jpg"
  },
  {
   "slug": "petite-ceinture",
   "name": "Petite Ceinture",
   "kind_fr": "Infrastructure",
   "famille": "services",
   "arrondissement": 0,
   "lat": 48.8342,
   "lon": 2.3906,
   "n_lieu": 43,
   "n_moments": 8,
   "argent_total_eur": 8105054,
   "depuis": 1894,
   "photo": "/img/lieux/petite-ceinture.jpg"
  },
  {
   "slug": "les-halles",
   "name": "Les Halles",
   "kind_fr": "Quartier-équipement",
   "famille": "services",
   "arrondissement": 1,
   "lat": 48.8621,
   "lon": 2.3454,
   "n_lieu": 40,
   "n_moments": 8,
   "argent_total_eur": 0,
   "depuis": 2007,
   "photo": "/img/lieux/les-halles.jpg"
  },
  {
   "slug": "piscine-pontoise",
   "name": "Piscine Pontoise",
   "kind_fr": "Piscine",
   "famille": "sport",
   "arrondissement": 5,
   "lat": 48.8497,
   "lon": 2.3529,
   "n_lieu": 22,
   "n_moments": 8,
   "argent_total_eur": 17304827,
   "depuis": 1996,
   "photo": "/img/lieux/piscine-pontoise.jpg"
  },
  {
   "slug": "piscine-georges-vallerey",
   "name": "Piscine Georges-Vallerey",
   "kind_fr": "Piscine",
   "famille": "sport",
   "arrondissement": 20,
   "lat": 48.8746,
   "lon": 2.4085,
   "n_lieu": 13,
   "n_moments": 8,
   "argent_total_eur": 3133698,
   "depuis": 1997,
   "photo": "/img/lieux/piscine-georges-vallerey.jpg"
  },
  {
   "slug": "piscine-josephine-baker",
   "name": "Piscine Joséphine-Baker",
   "kind_fr": "Piscine",
   "famille": "sport",
   "arrondissement": 13,
   "lat": 48.8367,
   "lon": 2.3762,
   "n_lieu": 5,
   "n_moments": 5,
   "argent_total_eur": 15991584,
   "depuis": 2006,
   "photo": "/img/lieux/piscine-josephine-baker.jpg"
  },
  {
   "slug": "piscine-hebert",
   "name": "Piscine Hébert",
   "kind_fr": "Piscine",
   "famille": "sport",
   "arrondissement": 18,
   "lat": 48.8935,
   "lon": 2.3612,
   "n_lieu": 2,
   "n_moments": 2,
   "argent_total_eur": 711422,
   "depuis": 2002,
   "photo": "/img/lieux/piscine-hebert.jpg"
  },
  {
   "slug": "piscine-pailleron",
   "name": "Piscine Pailleron",
   "kind_fr": "Piscine",
   "famille": "sport",
   "arrondissement": 19,
   "lat": 48.8788,
   "lon": 2.3766,
   "n_lieu": 26,
   "n_moments": 8,
   "argent_total_eur": 0,
   "depuis": 1997,
   "photo": "/img/lieux/piscine-pailleron.jpg"
  },
  {
   "slug": "theatre-du-chatelet",
   "name": "Théâtre du Châtelet",
   "kind_fr": "Théâtre",
   "famille": "culture",
   "arrondissement": 1,
   "lat": 48.8579,
   "lon": 2.3469,
   "n_lieu": 30,
   "n_moments": 8,
   "argent_total_eur": 132001148,
   "depuis": 1996,
   "photo": "/img/lieux/theatre-du-chatelet.jpg"
  },
  {
   "slug": "gaite-lyrique",
   "name": "Gaîté-Lyrique",
   "kind_fr": "Équipement culturel",
   "famille": "culture",
   "arrondissement": 3,
   "lat": 48.8666,
   "lon": 2.3535,
   "n_lieu": 43,
   "n_moments": 9,
   "argent_total_eur": 945886,
   "depuis": 1996,
   "photo": "/img/lieux/gaite-lyrique.jpg"
  },
  {
   "slug": "centquatre",
   "name": "Le Centquatre",
   "kind_fr": "Équipement culturel",
   "famille": "culture",
   "arrondissement": 19,
   "lat": 48.8901,
   "lon": 2.3702,
   "n_lieu": 20,
   "n_moments": 8,
   "argent_total_eur": 0,
   "depuis": 2009,
   "photo": "/img/lieux/centquatre.jpg"
  },
  {
   "slug": "carreau-du-temple",
   "name": "Carreau du Temple",
   "kind_fr": "Équipement",
   "famille": "services",
   "arrondissement": 3,
   "lat": 48.8645,
   "lon": 2.3615,
   "n_lieu": 23,
   "n_moments": 8,
   "argent_total_eur": 8513398,
   "depuis": 1889,
   "photo": "/img/lieux/carreau-du-temple.jpg"
  },
  {
   "slug": "maison-des-metallos",
   "name": "Maison des Métallos",
   "kind_fr": "Équipement culturel",
   "famille": "culture",
   "arrondissement": 11,
   "lat": 48.8666,
   "lon": 2.3778,
   "n_lieu": 42,
   "n_moments": 8,
   "argent_total_eur": 14568999,
   "depuis": 1999,
   "photo": "/img/lieux/maison-des-metallos.jpg"
  },
  {
   "slug": "parc-montsouris",
   "name": "Parc Montsouris",
   "kind_fr": "Parc",
   "famille": "vert",
   "arrondissement": 14,
   "lat": 48.8222,
   "lon": 2.3386,
   "n_lieu": 9,
   "n_moments": 8,
   "argent_total_eur": 227914,
   "depuis": 2001,
   "photo": "/img/lieux/parc-montsouris.jpg"
  },
  {
   "slug": "parc-monceau",
   "name": "Parc Monceau",
   "kind_fr": "Parc",
   "famille": "vert",
   "arrondissement": 8,
   "lat": 48.8797,
   "lon": 2.3089,
   "n_lieu": 12,
   "n_moments": 8,
   "argent_total_eur": 725844,
   "depuis": 1996,
   "photo": "/img/lieux/parc-monceau.jpg"
  },
  {
   "slug": "parc-andre-citroen",
   "name": "Parc André-Citroën",
   "kind_fr": "Parc",
   "famille": "vert",
   "arrondissement": 15,
   "lat": 48.8412,
   "lon": 2.2746,
   "n_lieu": 37,
   "n_moments": 8,
   "argent_total_eur": 6245720,
   "depuis": 1995,
   "photo": "/img/lieux/parc-andre-citroen.jpg"
  },
  {
   "slug": "parc-de-bercy",
   "name": "Parc de Bercy",
   "kind_fr": "Parc",
   "famille": "vert",
   "arrondissement": 12,
   "lat": 48.8352,
   "lon": 2.3826,
   "n_lieu": 31,
   "n_moments": 8,
   "argent_total_eur": 501870,
   "depuis": 1996,
   "photo": "/img/lieux/parc-de-bercy.jpg"
  },
  {
   "slug": "parc-de-la-villette",
   "name": "Parc de la Villette",
   "kind_fr": "Parc",
   "famille": "vert",
   "arrondissement": 19,
   "lat": 48.8938,
   "lon": 2.3906,
   "n_lieu": 19,
   "n_moments": 8,
   "argent_total_eur": 0,
   "depuis": 2000,
   "photo": "/img/lieux/parc-de-la-villette.jpg"
  },
  {
   "slug": "parc-georges-brassens",
   "name": "Parc Georges-Brassens",
   "kind_fr": "Parc",
   "famille": "vert",
   "arrondissement": 15,
   "lat": 48.8319,
   "lon": 2.2999,
   "n_lieu": 11,
   "n_moments": 8,
   "argent_total_eur": 183496,
   "depuis": 1997,
   "photo": "/img/lieux/parc-georges-brassens.jpg"
  },
  {
   "slug": "parc-de-belleville",
   "name": "Parc de Belleville",
   "kind_fr": "Parc",
   "famille": "vert",
   "arrondissement": 20,
   "lat": 48.871,
   "lon": 2.3846,
   "n_lieu": 14,
   "n_moments": 8,
   "argent_total_eur": 216838,
   "depuis": 1995,
   "photo": "/img/lieux/parc-de-belleville.jpg"
  },
  {
   "slug": "place-de-la-republique",
   "name": "Place de la République",
   "kind_fr": "Place",
   "famille": "urbain",
   "arrondissement": 3,
   "lat": 48.8676,
   "lon": 2.3637,
   "n_lieu": 32,
   "n_moments": 8,
   "argent_total_eur": 637864,
   "depuis": 2003,
   "photo": "/img/lieux/place-de-la-republique.jpg"
  },
  {
   "slug": "place-de-la-bastille",
   "name": "Place de la Bastille",
   "kind_fr": "Place",
   "famille": "urbain",
   "arrondissement": 4,
   "lat": 48.8532,
   "lon": 2.3692,
   "n_lieu": 19,
   "n_moments": 8,
   "argent_total_eur": 770454,
   "depuis": 1995,
   "photo": "/img/lieux/place-de-la-bastille.jpg"
  },
  {
   "slug": "place-de-la-nation",
   "name": "Place de la Nation",
   "kind_fr": "Place",
   "famille": "urbain",
   "arrondissement": 12,
   "lat": 48.8484,
   "lon": 2.3958,
   "n_lieu": 11,
   "n_moments": 8,
   "argent_total_eur": 1510132,
   "depuis": 1995,
   "photo": "/img/lieux/place-de-la-nation.jpg"
  },
  {
   "slug": "marche-daligre",
   "name": "Marché d'Aligre",
   "kind_fr": "Marché",
   "famille": "services",
   "arrondissement": 12,
   "lat": 48.849,
   "lon": 2.3785,
   "n_lieu": 6,
   "n_moments": 8,
   "argent_total_eur": 0,
   "depuis": 1996,
   "photo": "/img/lieux/marche-daligre.jpg"
  },
  {
   "slug": "marche-saint-quentin",
   "name": "Marché Saint-Quentin",
   "kind_fr": "Marché couvert",
   "famille": "services",
   "arrondissement": 10,
   "lat": 48.8781,
   "lon": 2.3577,
   "n_lieu": 5,
   "n_moments": 6,
   "argent_total_eur": 0,
   "depuis": 2000,
   "photo": "/img/lieux/marche-saint-quentin.jpg"
  },
  {
   "slug": "hotel-de-ville",
   "name": "Hôtel de Ville",
   "kind_fr": "Monument",
   "famille": "urbain",
   "arrondissement": 4,
   "lat": 48.8566,
   "lon": 2.3522,
   "n_lieu": 8,
   "n_moments": 8,
   "argent_total_eur": 2257938,
   "depuis": 1997,
   "photo": "/img/lieux/hotel-de-ville.jpg"
  },
  {
   "slug": "canal-saint-martin",
   "name": "Canal Saint-Martin",
   "kind_fr": "Infrastructure",
   "famille": "services",
   "arrondissement": 10,
   "lat": 48.8712,
   "lon": 2.366,
   "n_lieu": 25,
   "n_moments": 8,
   "argent_total_eur": 538400,
   "depuis": 1883,
   "photo": "/img/lieux/canal-saint-martin.jpg"
  },
  {
   "slug": "pavillon-de-larsenal",
   "name": "Pavillon de l'Arsenal",
   "kind_fr": "Équipement",
   "famille": "services",
   "arrondissement": 4,
   "lat": 48.8511,
   "lon": 2.362,
   "n_lieu": 26,
   "n_moments": 8,
   "argent_total_eur": 16913369,
   "depuis": 1998,
   "photo": "/img/lieux/pavillon-de-larsenal.jpg"
  },
  {
   "slug": "serres-dauteuil",
   "name": "Serres d'Auteuil",
   "kind_fr": "Jardin",
   "famille": "vert",
   "arrondissement": 16,
   "lat": 48.8464,
   "lon": 2.2523,
   "n_lieu": 11,
   "n_moments": 7,
   "argent_total_eur": 1212350,
   "depuis": 1995,
   "photo": "/img/lieux/serres-dauteuil.jpg"
  },
  {
   "slug": "pere-lachaise",
   "name": "Cimetière du Père-Lachaise",
   "kind_fr": "Cimetière",
   "famille": "vert",
   "arrondissement": 20,
   "lat": 48.861,
   "lon": 2.3933,
   "n_lieu": 33,
   "n_moments": 8,
   "argent_total_eur": 764026,
   "depuis": 1996,
   "photo": "/img/lieux/pere-lachaise.jpg"
  },
  {
   "slug": "gymnase-japy",
   "name": "Gymnase Japy",
   "kind_fr": "Gymnase",
   "famille": "sport",
   "arrondissement": 11,
   "lat": 48.8577,
   "lon": 2.38,
   "n_lieu": 4,
   "n_moments": 4,
   "argent_total_eur": 128392,
   "depuis": 1885,
   "photo": "/img/lieux/gymnase-japy.jpg"
  },
  {
   "slug": "bourse-du-travail",
   "name": "Bourse du Travail",
   "kind_fr": "Équipement",
   "famille": "services",
   "arrondissement": 10,
   "lat": 48.868,
   "lon": 2.3618,
   "n_lieu": 1,
   "n_moments": 1,
   "argent_total_eur": 874336,
   "depuis": 2025,
   "photo": "/img/lieux/bourse-du-travail.jpg"
  },
  {
   "slug": "mairie-du-18e",
   "name": "Mairie du 18e",
   "kind_fr": "Mairie",
   "famille": "services",
   "arrondissement": 18,
   "lat": 48.8927,
   "lon": 2.3444,
   "n_lieu": 12,
   "n_moments": 8,
   "argent_total_eur": 1633824,
   "depuis": 1996,
   "photo": "/img/lieux/mairie-du-18e.jpg"
  },
  {
   "slug": "bibliotheque-historique",
   "name": "Bibliothèque historique (BHVP)",
   "kind_fr": "Bibliothèque",
   "famille": "culture",
   "arrondissement": 4,
   "lat": 48.8556,
   "lon": 2.3585,
   "n_lieu": 0,
   "n_moments": 1,
   "argent_total_eur": 0,
   "depuis": 1997,
   "photo": "/img/lieux/bibliotheque-historique.jpg"
  },
  {
   "slug": "halle-saint-pierre",
   "name": "Halle Saint-Pierre",
   "kind_fr": "Équipement",
   "famille": "services",
   "arrondissement": 18,
   "lat": 48.8853,
   "lon": 2.3419,
   "n_lieu": 25,
   "n_moments": 8,
   "argent_total_eur": 400000,
   "depuis": 2001,
   "photo": "/img/lieux/halle-saint-pierre.jpg"
  },
  {
   "slug": "theatre-13",
   "name": "Théâtre 13",
   "kind_fr": "Théâtre",
   "famille": "culture",
   "arrondissement": 13,
   "lat": 48.8291,
   "lon": 2.3562,
   "n_lieu": 16,
   "n_moments": 8,
   "argent_total_eur": 0,
   "depuis": 2002,
   "photo": null
  },
  {
   "slug": "kiosque-fleurs-cite",
   "name": "Marché aux fleurs de la Cité",
   "kind_fr": "Marché",
   "famille": "services",
   "arrondissement": 4,
   "lat": 48.8555,
   "lon": 2.3474,
   "n_lieu": 5,
   "n_moments": 6,
   "argent_total_eur": 97211,
   "depuis": 2003,
   "photo": "/img/lieux/kiosque-fleurs-cite.jpg"
  },
  {
   "slug": "stade-jean-bouin",
   "name": "Stade Jean-Bouin",
   "kind_fr": "Stade",
   "famille": "sport",
   "arrondissement": 16,
   "lat": 48.8432,
   "lon": 2.253,
   "n_lieu": 36,
   "n_moments": 8,
   "argent_total_eur": 10889618,
   "depuis": 1996,
   "photo": "/img/lieux/stade-jean-bouin.jpg"
  },
  {
   "slug": "square-du-vert-galant",
   "name": "Square du Vert-Galant",
   "kind_fr": "Square",
   "famille": "vert",
   "arrondissement": 1,
   "lat": 48.8574,
   "lon": 2.341,
   "n_lieu": 1,
   "n_moments": 1,
   "argent_total_eur": 0,
   "depuis": 1995,
   "photo": "/img/lieux/square-du-vert-galant.jpg"
  },
  {
   "slug": "fontaine-saint-michel",
   "name": "Fontaine Saint-Michel",
   "kind_fr": "Monument",
   "famille": "urbain",
   "arrondissement": 6,
   "lat": 48.8534,
   "lon": 2.3438,
   "n_lieu": 2,
   "n_moments": 5,
   "argent_total_eur": 33880,
   "depuis": 1998,
   "photo": "/img/lieux/fontaine-saint-michel.jpg"
  },
  {
   "slug": "musee-carnavalet",
   "name": "Musée Carnavalet",
   "kind_fr": "Musée",
   "famille": "culture",
   "arrondissement": 3,
   "lat": 48.85706,
   "lon": 2.36285,
   "n_lieu": 43,
   "n_moments": 8,
   "argent_total_eur": 39775385,
   "depuis": 1995,
   "photo": "/img/lieux/musee-carnavalet.jpg"
  },
  {
   "slug": "petit-palais",
   "name": "Petit Palais",
   "kind_fr": "Musée",
   "famille": "culture",
   "arrondissement": 8,
   "lat": 48.86608,
   "lon": 2.31364,
   "n_lieu": 38,
   "n_moments": 8,
   "argent_total_eur": 0,
   "depuis": 1996,
   "photo": "/img/lieux/petit-palais.jpg"
  },
  {
   "slug": "musee-d-art-moderne-de-paris",
   "name": "Musée d'Art moderne de Paris",
   "kind_fr": "Musée",
   "famille": "culture",
   "arrondissement": 16,
   "lat": 48.86438,
   "lon": 2.29353,
   "n_lieu": 41,
   "n_moments": 8,
   "argent_total_eur": 0,
   "depuis": 1995,
   "photo": "/img/lieux/musee-d-art-moderne-de-paris.jpg"
  },
  {
   "slug": "catacombes-de-paris",
   "name": "Catacombes de Paris",
   "kind_fr": "Musée",
   "famille": "culture",
   "arrondissement": 14,
   "lat": 48.83398,
   "lon": 2.33251,
   "n_lieu": 8,
   "n_moments": 7,
   "argent_total_eur": 0,
   "depuis": 1999,
   "photo": "/img/lieux/catacombes-de-paris.jpg"
  },
  {
   "slug": "maison-de-victor-hugo",
   "name": "Maison de Victor Hugo",
   "kind_fr": "Musée",
   "famille": "culture",
   "arrondissement": 4,
   "lat": 48.85482,
   "lon": 2.36613,
   "n_lieu": 14,
   "n_moments": 8,
   "argent_total_eur": 0,
   "depuis": 1997,
   "photo": "/img/lieux/maison-de-victor-hugo.jpg"
  },
  {
   "slug": "musee-de-la-vie-romantique",
   "name": "Musée de la Vie romantique",
   "kind_fr": "Musée",
   "famille": "culture",
   "arrondissement": 9,
   "lat": 48.8809,
   "lon": 2.33329,
   "n_lieu": 12,
   "n_moments": 8,
   "argent_total_eur": 0,
   "depuis": 1999,
   "photo": "/img/lieux/musee-de-la-vie-romantique.jpg"
  },
  {
   "slug": "musee-cognacq-jay",
   "name": "Musée Cognacq-Jay",
   "kind_fr": "Musée",
   "famille": "culture",
   "arrondissement": 3,
   "lat": 48.8582,
   "lon": 2.36147,
   "n_lieu": 1,
   "n_moments": 1,
   "argent_total_eur": 263333,
   "depuis": 2010,
   "photo": "/img/lieux/musee-cognacq-jay.jpg"
  },
  {
   "slug": "musee-bourdelle",
   "name": "Musée Bourdelle",
   "kind_fr": "Musée",
   "famille": "culture",
   "arrondissement": 15,
   "lat": 48.84298,
   "lon": 2.31859,
   "n_lieu": 19,
   "n_moments": 8,
   "argent_total_eur": 1737902,
   "depuis": 1996,
   "photo": "/img/lieux/musee-bourdelle.jpg"
  },
  {
   "slug": "musee-zadkine",
   "name": "Musée Zadkine",
   "kind_fr": "Musée",
   "famille": "culture",
   "arrondissement": 6,
   "lat": 48.84303,
   "lon": 2.33404,
   "n_lieu": 10,
   "n_moments": 8,
   "argent_total_eur": 0,
   "depuis": 1997,
   "photo": "/img/lieux/musee-zadkine.jpg"
  },
  {
   "slug": "maison-de-balzac",
   "name": "Maison de Balzac",
   "kind_fr": "Musée",
   "famille": "culture",
   "arrondissement": 16,
   "lat": 48.85536,
   "lon": 2.28085,
   "n_lieu": 7,
   "n_moments": 7,
   "argent_total_eur": 48689,
   "depuis": 1921,
   "photo": "/img/lieux/maison-de-balzac.jpg"
  },
  {
   "slug": "musee-cernuschi",
   "name": "Musée Cernuschi",
   "kind_fr": "Musée",
   "famille": "culture",
   "arrondissement": 8,
   "lat": 48.87964,
   "lon": 2.31246,
   "n_lieu": 34,
   "n_moments": 8,
   "argent_total_eur": 0,
   "depuis": 1995,
   "photo": "/img/lieux/musee-cernuschi.jpg"
  },
  {
   "slug": "palais-galliera",
   "name": "Palais Galliera",
   "kind_fr": "Musée",
   "famille": "culture",
   "arrondissement": 16,
   "lat": 48.86597,
   "lon": 2.29657,
   "n_lieu": 20,
   "n_moments": 8,
   "argent_total_eur": 1660825,
   "depuis": 1997,
   "photo": "/img/lieux/palais-galliera.jpg"
  },
  {
   "slug": "memorial-du-marechal-leclerc-et-musee-jean-moulin",
   "name": "Mémorial du Maréchal Leclerc et musée Jean Moulin",
   "kind_fr": "Musée",
   "famille": "culture",
   "arrondissement": 15,
   "lat": 48.84066,
   "lon": 2.31967,
   "n_lieu": 10,
   "n_moments": 8,
   "argent_total_eur": 0,
   "depuis": 1995,
   "photo": "/img/lieux/memorial-du-marechal-leclerc-et-musee-jean-moulin.jpg"
  },
  {
   "slug": "crypte-archeologique-de-l-ile-de-la-cite",
   "name": "Crypte archéologique de l'île de la Cité",
   "kind_fr": "Musée",
   "famille": "culture",
   "arrondissement": 4,
   "lat": 48.85321,
   "lon": 2.3487,
   "n_lieu": 4,
   "n_moments": 4,
   "argent_total_eur": 0,
   "depuis": 1998,
   "photo": "/img/lieux/crypte-archeologique-de-l-ile-de-la-cite.jpg"
  },
  {
   "slug": "theatre-du-rond-point",
   "name": "Théâtre du Rond-Point",
   "kind_fr": "Théâtre",
   "famille": "culture",
   "arrondissement": 8,
   "lat": 48.86778,
   "lon": 2.31055,
   "n_lieu": 26,
   "n_moments": 8,
   "argent_total_eur": 15834346,
   "depuis": 1999,
   "photo": "/img/lieux/theatre-du-rond-point.jpg"
  },
  {
   "slug": "theatre-silvia-monfort",
   "name": "Théâtre Silvia Monfort",
   "kind_fr": "Théâtre",
   "famille": "culture",
   "arrondissement": 15,
   "lat": 48.8303,
   "lon": 2.30182,
   "n_lieu": 23,
   "n_moments": 8,
   "argent_total_eur": 2959000,
   "depuis": 2002,
   "photo": "/img/lieux/theatre-silvia-monfort.jpg"
  },
  {
   "slug": "theatre-paris-villette",
   "name": "Théâtre Paris-Villette",
   "kind_fr": "Théâtre",
   "famille": "culture",
   "arrondissement": 19,
   "lat": 48.88895,
   "lon": 2.39245,
   "n_lieu": 2,
   "n_moments": 2,
   "argent_total_eur": 7626181,
   "depuis": 2016,
   "photo": "/img/lieux/theatre-paris-villette.jpg"
  },
  {
   "slug": "theatre-14",
   "name": "Théâtre 14",
   "kind_fr": "Théâtre",
   "famille": "culture",
   "arrondissement": 14,
   "lat": 48.8259,
   "lon": 2.30685,
   "n_lieu": 13,
   "n_moments": 7,
   "argent_total_eur": 407259,
   "depuis": 1999,
   "photo": null
  },
  {
   "slug": "adidas-arena",
   "name": "Adidas Arena",
   "kind_fr": "Équipement",
   "famille": "sport",
   "arrondissement": 18,
   "lat": 48.89809,
   "lon": 2.34744,
   "n_lieu": 13,
   "n_moments": 8,
   "argent_total_eur": 589379,
   "depuis": 2018,
   "photo": "/img/lieux/adidas-arena.jpg"
  },
  {
   "slug": "porte-de-la-chapelle",
   "name": "Porte de la Chapelle",
   "kind_fr": "Place",
   "famille": "urbain",
   "arrondissement": 18,
   "lat": 48.90002,
   "lon": 2.35857,
   "n_lieu": 26,
   "n_moments": 8,
   "argent_total_eur": 39946553,
   "depuis": 2003,
   "photo": "/img/lieux/porte-de-la-chapelle.jpg"
  },
  {
   "slug": "porte-de-montreuil",
   "name": "Porte de Montreuil",
   "kind_fr": "Place",
   "famille": "urbain",
   "arrondissement": 20,
   "lat": 48.85439,
   "lon": 2.41427,
   "n_lieu": 30,
   "n_moments": 8,
   "argent_total_eur": 7779956,
   "depuis": 2003,
   "photo": "/img/lieux/porte-de-montreuil.jpg"
  },
  {
   "slug": "piscine-belliard",
   "name": "Piscine Belliard",
   "kind_fr": "Piscine",
   "famille": "sport",
   "arrondissement": 18,
   "lat": 48.89623,
   "lon": 2.33473,
   "n_lieu": 2,
   "n_moments": 8,
   "argent_total_eur": 15559538,
   "depuis": 2016,
   "photo": null
  },
  {
   "slug": "mediatheque-james-baldwin",
   "name": "Médiathèque James Baldwin",
   "kind_fr": "Bibliothèque",
   "famille": "culture",
   "arrondissement": 19,
   "lat": 48.8897,
   "lon": 2.3686,
   "n_lieu": 2,
   "n_moments": 2,
   "argent_total_eur": 13162651,
   "depuis": 2019,
   "photo": "/img/lieux/mediatheque-james-baldwin.jpg"
  },
  {
   "slug": "stade-charlety",
   "name": "Stade Charléty",
   "kind_fr": "Stade",
   "famille": "sport",
   "arrondissement": 13,
   "lat": 48.81922,
   "lon": 2.34555,
   "n_lieu": 42,
   "n_moments": 8,
   "argent_total_eur": 30975989,
   "depuis": 2000,
   "photo": "/img/lieux/stade-charlety.jpg"
  },
  {
   "slug": "cirque-d-hiver",
   "name": "Cirque d'Hiver",
   "kind_fr": "Équipement culturel",
   "famille": "culture",
   "arrondissement": 11,
   "lat": 48.86312,
   "lon": 2.36727,
   "n_lieu": 1,
   "n_moments": 1,
   "argent_total_eur": 0,
   "depuis": 1887,
   "photo": "/img/lieux/cirque-d-hiver.jpg"
  },
  {
   "slug": "bibliotheque-forney",
   "name": "Bibliothèque Forney",
   "kind_fr": "Bibliothèque",
   "famille": "culture",
   "arrondissement": 4,
   "lat": 48.853389,
   "lon": 2.359078,
   "n_lieu": 7,
   "n_moments": 7,
   "argent_total_eur": 835426,
   "depuis": 2000,
   "photo": "/img/lieux/bibliotheque-forney.jpg"
  },
  {
   "slug": "maison-de-la-poesie",
   "name": "Maison de la Poésie",
   "kind_fr": "Scène littéraire",
   "famille": "culture",
   "arrondissement": 3,
   "lat": 48.825945,
   "lon": 2.358291,
   "n_lieu": 19,
   "n_moments": 8,
   "argent_total_eur": 7524100,
   "depuis": 1999,
   "photo": "/img/lieux/maison-de-la-poesie.jpg"
  },
  {
   "slug": "conservatoire-de-paris-crr",
   "name": "Conservatoire de Paris (CRR)",
   "kind_fr": "Conservatoire",
   "famille": "culture",
   "arrondissement": 19,
   "lat": 48.873259,
   "lon": 2.346855,
   "n_lieu": 21,
   "n_moments": 8,
   "argent_total_eur": 0,
   "depuis": 1995,
   "photo": "/img/lieux/conservatoire-de-paris-crr.jpg"
  },
  {
   "slug": "theatre-de-la-bastille",
   "name": "Théâtre de la Bastille",
   "kind_fr": "Théâtre",
   "famille": "culture",
   "arrondissement": 11,
   "lat": 48.853849,
   "lon": 2.367928,
   "n_lieu": 20,
   "n_moments": 8,
   "argent_total_eur": 0,
   "depuis": 1997,
   "photo": "/img/lieux/theatre-de-la-bastille.jpg"
  },
  {
   "slug": "theatre-de-la-cite-internationale",
   "name": "Théâtre de la Cité internationale",
   "kind_fr": "Théâtre",
   "famille": "culture",
   "arrondissement": 14,
   "lat": 48.887406,
   "lon": 2.358517,
   "n_lieu": 9,
   "n_moments": 8,
   "argent_total_eur": 0,
   "depuis": 2002,
   "photo": "/img/lieux/theatre-de-la-cite-internationale.jpg"
  },
  {
   "slug": "piscine-molitor",
   "name": "Piscine Molitor",
   "kind_fr": "Piscine",
   "famille": "sport",
   "arrondissement": 16,
   "lat": 48.845229,
   "lon": 2.262475,
   "n_lieu": 39,
   "n_moments": 8,
   "argent_total_eur": 0,
   "depuis": 1995,
   "photo": "/img/lieux/piscine-molitor.jpg"
  },
  {
   "slug": "parc-martin-luther-king",
   "name": "Parc Martin Luther King",
   "kind_fr": "Parc",
   "famille": "vert",
   "arrondissement": 17,
   "lat": 48.8912,
   "lon": 2.316,
   "n_lieu": 8,
   "n_moments": 8,
   "argent_total_eur": 208011,
   "depuis": 2007,
   "photo": "/img/lieux/parc-martin-luther-king.jpg"
  },
  {
   "slug": "parc-floral-de-paris",
   "name": "Parc floral de Paris",
   "kind_fr": "Parc",
   "famille": "vert",
   "arrondissement": 12,
   "lat": 48.8355,
   "lon": 2.447,
   "n_lieu": 22,
   "n_moments": 8,
   "argent_total_eur": 8414,
   "depuis": 1998,
   "photo": "/img/lieux/parc-floral-de-paris.jpg"
  },
  {
   "slug": "bois-de-vincennes",
   "name": "Bois de Vincennes",
   "kind_fr": "Bois",
   "famille": "vert",
   "arrondissement": 12,
   "lat": 48.847196,
   "lon": 2.404955,
   "n_lieu": 42,
   "n_moments": 8,
   "argent_total_eur": 3910649,
   "depuis": 2005,
   "photo": "/img/lieux/bois-de-vincennes.jpg"
  },
  {
   "slug": "bois-de-boulogne",
   "name": "Bois de Boulogne",
   "kind_fr": "Bois",
   "famille": "vert",
   "arrondissement": 16,
   "lat": 48.87511,
   "lon": 2.286939,
   "n_lieu": 44,
   "n_moments": 8,
   "argent_total_eur": 13673682,
   "depuis": 2005,
   "photo": "/img/lieux/bois-de-boulogne.jpg"
  },
  {
   "slug": "jardin-du-ranelagh",
   "name": "Jardin du Ranelagh",
   "kind_fr": "Jardin",
   "famille": "vert",
   "arrondissement": 16,
   "lat": 48.858701,
   "lon": 2.269321,
   "n_lieu": 10,
   "n_moments": 8,
   "argent_total_eur": 0,
   "depuis": 1999,
   "photo": "/img/lieux/jardin-du-ranelagh.jpg"
  },
  {
   "slug": "coulee-verte-rene-dumont",
   "name": "Coulée verte René-Dumont",
   "kind_fr": "Promenade",
   "famille": "vert",
   "arrondissement": 12,
   "lat": 48.8478,
   "lon": 2.376,
   "n_lieu": 3,
   "n_moments": 4,
   "argent_total_eur": 0,
   "depuis": 2000,
   "photo": "/img/lieux/coulee-verte-rene-dumont.jpg"
  },
  {
   "slug": "place-des-vosges",
   "name": "Place des Vosges",
   "kind_fr": "Place",
   "famille": "urbain",
   "arrondissement": 4,
   "lat": 48.85565,
   "lon": 2.36555,
   "n_lieu": 23,
   "n_moments": 8,
   "argent_total_eur": 1276945,
   "depuis": 1996,
   "photo": "/img/lieux/place-des-vosges.jpg"
  },
  {
   "slug": "place-d-italie",
   "name": "Place d'Italie",
   "kind_fr": "Place",
   "famille": "urbain",
   "arrondissement": 13,
   "lat": 48.831342,
   "lon": 2.355345,
   "n_lieu": 1,
   "n_moments": 7,
   "argent_total_eur": 1278005,
   "depuis": 2018,
   "photo": "/img/lieux/place-d-italie.jpg"
  },
  {
   "slug": "place-du-tertre",
   "name": "Place du Tertre",
   "kind_fr": "Place",
   "famille": "urbain",
   "arrondissement": 18,
   "lat": 48.886518,
   "lon": 2.340671,
   "n_lieu": 12,
   "n_moments": 8,
   "argent_total_eur": 0,
   "depuis": 2000,
   "photo": "/img/lieux/place-du-tertre.jpg"
  },
  {
   "slug": "arenes-de-lutece",
   "name": "Arènes de Lutèce",
   "kind_fr": "Monument",
   "famille": "urbain",
   "arrondissement": 5,
   "lat": 48.855149,
   "lon": 2.346456,
   "n_lieu": 4,
   "n_moments": 4,
   "argent_total_eur": 0,
   "depuis": 1999,
   "photo": "/img/lieux/arenes-de-lutece.jpg"
  },
  {
   "slug": "place-denfert-rochereau",
   "name": "Place Denfert-Rochereau",
   "kind_fr": "Place",
   "famille": "urbain",
   "arrondissement": 14,
   "lat": 48.833963,
   "lon": 2.331487,
   "n_lieu": 6,
   "n_moments": 8,
   "argent_total_eur": 10920465,
   "depuis": 2003,
   "photo": "/img/lieux/place-denfert-rochereau.jpg"
  },
  {
   "slug": "fontaine-des-innocents",
   "name": "Fontaine des Innocents",
   "kind_fr": "Monument",
   "famille": "urbain",
   "arrondissement": 1,
   "lat": 48.860458,
   "lon": 2.347394,
   "n_lieu": 2,
   "n_moments": 2,
   "argent_total_eur": 1710941,
   "depuis": 2014,
   "photo": "/img/lieux/fontaine-des-innocents.jpg"
  },
  {
   "slug": "place-du-chatelet",
   "name": "Place du Châtelet",
   "kind_fr": "Place",
   "famille": "urbain",
   "arrondissement": 1,
   "lat": 48.857346,
   "lon": 2.34779,
   "n_lieu": 12,
   "n_moments": 7,
   "argent_total_eur": 85310,
   "depuis": 1998,
   "photo": "/img/lieux/place-du-chatelet.jpg"
  },
  {
   "slug": "place-de-la-madeleine",
   "name": "Place de la Madeleine",
   "kind_fr": "Place",
   "famille": "urbain",
   "arrondissement": 8,
   "lat": 48.870779,
   "lon": 2.325,
   "n_lieu": 15,
   "n_moments": 8,
   "argent_total_eur": 1490043,
   "depuis": 1996,
   "photo": "/img/lieux/place-de-la-madeleine.jpg"
  },
  {
   "slug": "bourse-de-commerce",
   "name": "Bourse de Commerce",
   "kind_fr": "Monument",
   "famille": "services",
   "arrondissement": 1,
   "lat": 48.862819,
   "lon": 2.342834,
   "n_lieu": 3,
   "n_moments": 3,
   "argent_total_eur": 0,
   "depuis": 2004,
   "photo": "/img/lieux/bourse-de-commerce.jpg"
  }
 ]
}