{
 "generated_at": "2026-07-21T17:04:41.999226+00:00",
 "lieux": [
  {
   "slug": "piscine-des-amiraux",
   "name": "Piscine des Amiraux",
   "kind_fr": "Piscine",
   "famille": "sport",
   "arrondissement": 18,
   "lat": 48.8926,
   "lon": 2.3557,
   "n_lieu": 13,
   "n_moments": 6,
   "argent_total_eur": 21226498,
   "depense_reelle_eur": 13256218,
   "engage_eur": 7970280,
   "depuis": 1965,
   "photo": "/img/lieux/piscine-des-amiraux.jpg"
  },
  {
   "slug": "philharmonie-de-paris",
   "name": "Philharmonie de Paris",
   "kind_fr": "Salle de concert",
   "famille": "culture",
   "arrondissement": 19,
   "lat": 48.8908,
   "lon": 2.3939,
   "n_lieu": 34,
   "n_moments": 8,
   "argent_total_eur": 260806906,
   "depense_reelle_eur": 260806906,
   "engage_eur": 0,
   "depuis": 2006,
   "photo": "/img/lieux/philharmonie-de-paris.jpg"
  },
  {
   "slug": "theatre-de-la-ville",
   "name": "Théâtre de la Ville",
   "kind_fr": "Théâtre",
   "famille": "culture",
   "arrondissement": 4,
   "lat": 48.8574,
   "lon": 2.3477,
   "n_lieu": 32,
   "n_moments": 8,
   "argent_total_eur": 131077780,
   "depense_reelle_eur": 103017200,
   "engage_eur": 28060580,
   "depuis": 1996,
   "photo": "/img/lieux/theatre-de-la-ville.jpg"
  },
  {
   "slug": "porte-maillot",
   "name": "Porte Maillot",
   "kind_fr": "Place",
   "famille": "urbain",
   "arrondissement": 16,
   "lat": 48.8781,
   "lon": 2.2822,
   "n_lieu": 36,
   "n_moments": 8,
   "argent_total_eur": 17973350,
   "depense_reelle_eur": 15165289,
   "engage_eur": 2808061,
   "depuis": 1889,
   "photo": "/img/lieux/porte-maillot.jpg"
  },
  {
   "slug": "piscine-butte-aux-cailles",
   "name": "Piscine de la Butte-aux-Cailles",
   "kind_fr": "Piscine",
   "famille": "sport",
   "arrondissement": 13,
   "lat": 48.8265,
   "lon": 2.3524,
   "n_lieu": 3,
   "n_moments": 3,
   "argent_total_eur": 42761,
   "depense_reelle_eur": 0,
   "engage_eur": 42761,
   "depuis": 1926,
   "photo": "/img/lieux/piscine-butte-aux-cailles.jpg"
  },
  {
   "slug": "parc-des-buttes-chaumont",
   "name": "Parc des Buttes-Chaumont",
   "kind_fr": "Parc",
   "famille": "vert",
   "arrondissement": 19,
   "lat": 48.8809,
   "lon": 2.3819,
   "n_lieu": 23,
   "n_moments": 8,
   "argent_total_eur": 116422459,
   "depense_reelle_eur": 20964901,
   "engage_eur": 95457558,
   "depuis": 1898,
   "photo": "/img/lieux/parc-des-buttes-chaumont.jpg"
  },
  {
   "slug": "tour-saint-jacques",
   "name": "Tour Saint-Jacques",
   "kind_fr": "Monument",
   "famille": "urbain",
   "arrondissement": 4,
   "lat": 48.8579,
   "lon": 2.3489,
   "n_lieu": 7,
   "n_moments": 7,
   "argent_total_eur": 414743,
   "depense_reelle_eur": 414743,
   "engage_eur": 0,
   "depuis": 1898,
   "photo": "/img/lieux/tour-saint-jacques.jpg"
  },
  {
   "slug": "marche-des-enfants-rouges",
   "name": "Marché des Enfants-Rouges",
   "kind_fr": "Marché couvert",
   "famille": "services",
   "arrondissement": 3,
   "lat": 48.8628,
   "lon": 2.3623,
   "n_lieu": 12,
   "n_moments": 8,
   "argent_total_eur": 267429,
   "depense_reelle_eur": 167876,
   "engage_eur": 99552,
   "depuis": 1996,
   "photo": "/img/lieux/marche-des-enfants-rouges.jpg"
  },
  {
   "slug": "petite-ceinture",
   "name": "Petite Ceinture",
   "kind_fr": "Infrastructure",
   "famille": "services",
   "arrondissement": 0,
   "lat": 48.8342,
   "lon": 2.3906,
   "n_lieu": 43,
   "n_moments": 8,
   "argent_total_eur": 18446472,
   "depense_reelle_eur": 12581203,
   "engage_eur": 5865270,
   "depuis": 1894,
   "photo": "/img/lieux/petite-ceinture.jpg"
  },
  {
   "slug": "les-halles",
   "name": "Les Halles",
   "kind_fr": "Quartier-équipement",
   "famille": "services",
   "arrondissement": 1,
   "lat": 48.8621,
   "lon": 2.3454,
   "n_lieu": 40,
   "n_moments": 8,
   "argent_total_eur": 155811063,
   "depense_reelle_eur": 155811063,
   "engage_eur": 0,
   "depuis": 1888,
   "photo": "/img/lieux/les-halles.jpg"
  },
  {
   "slug": "piscine-pontoise",
   "name": "Piscine Pontoise",
   "kind_fr": "Piscine",
   "famille": "sport",
   "arrondissement": 5,
   "lat": 48.8497,
   "lon": 2.3529,
   "n_lieu": 22,
   "n_moments": 8,
   "argent_total_eur": 17304827,
   "depense_reelle_eur": 6218253,
   "engage_eur": 11086574,
   "depuis": 1996,
   "photo": "/img/lieux/piscine-pontoise.jpg"
  },
  {
   "slug": "piscine-georges-vallerey",
   "name": "Piscine Georges-Vallerey",
   "kind_fr": "Piscine",
   "famille": "sport",
   "arrondissement": 20,
   "lat": 48.8746,
   "lon": 2.4085,
   "n_lieu": 13,
   "n_moments": 8,
   "argent_total_eur": 3133698,
   "depense_reelle_eur": 0,
   "engage_eur": 3133698,
   "depuis": 1997,
   "photo": "/img/lieux/piscine-georges-vallerey.jpg"
  },
  {
   "slug": "piscine-josephine-baker",
   "name": "Piscine Joséphine-Baker",
   "kind_fr": "Piscine",
   "famille": "sport",
   "arrondissement": 13,
   "lat": 48.8367,
   "lon": 2.3762,
   "n_lieu": 5,
   "n_moments": 5,
   "argent_total_eur": 15991584,
   "depense_reelle_eur": 0,
   "engage_eur": 15991584,
   "depuis": 2006,
   "photo": "/img/lieux/piscine-josephine-baker.jpg"
  },
  {
   "slug": "piscine-hebert",
   "name": "Piscine Hébert",
   "kind_fr": "Piscine",
   "famille": "sport",
   "arrondissement": 18,
   "lat": 48.8935,
   "lon": 2.3612,
   "n_lieu": 2,
   "n_moments": 2,
   "argent_total_eur": 711422,
   "depense_reelle_eur": 0,
   "engage_eur": 711422,
   "depuis": 1894,
   "photo": "/img/lieux/piscine-hebert.jpg"
  },
  {
   "slug": "piscine-pailleron",
   "name": "Piscine Pailleron",
   "kind_fr": "Piscine",
   "famille": "sport",
   "arrondissement": 19,
   "lat": 48.8788,
   "lon": 2.3766,
   "n_lieu": 26,
   "n_moments": 8,
   "argent_total_eur": 0,
   "depense_reelle_eur": 0,
   "engage_eur": 0,
   "depuis": 1997,
   "photo": "/img/lieux/piscine-pailleron.jpg"
  },
  {
   "slug": "theatre-du-chatelet",
   "name": "Théâtre du Châtelet",
   "kind_fr": "Théâtre",
   "famille": "culture",
   "arrondissement": 1,
   "lat": 48.8579,
   "lon": 2.3469,
   "n_lieu": 30,
   "n_moments": 8,
   "argent_total_eur": 143170415,
   "depense_reelle_eur": 117232870,
   "engage_eur": 25937545,
   "depuis": 1898,
   "photo": "/img/lieux/theatre-du-chatelet.jpg"
  },
  {
   "slug": "gaite-lyrique",
   "name": "Gaîté-Lyrique",
   "kind_fr": "Équipement culturel",
   "famille": "culture",
   "arrondissement": 3,
   "lat": 48.8666,
   "lon": 2.3535,
   "n_lieu": 43,
   "n_moments": 9,
   "argent_total_eur": 62473807,
   "depense_reelle_eur": 61642062,
   "engage_eur": 831746,
   "depuis": 1889,
   "photo": "/img/lieux/gaite-lyrique.jpg"
  },
  {
   "slug": "centquatre",
   "name": "Le Centquatre",
   "kind_fr": "Équipement culturel",
   "famille": "culture",
   "arrondissement": 19,
   "lat": 48.8901,
   "lon": 2.3702,
   "n_lieu": 20,
   "n_moments": 8,
   "argent_total_eur": 0,
   "depense_reelle_eur": 0,
   "engage_eur": 0,
   "depuis": 2009,
   "photo": "/img/lieux/centquatre.jpg"
  },
  {
   "slug": "carreau-du-temple",
   "name": "Carreau du Temple",
   "kind_fr": "Équipement",
   "famille": "services",
   "arrondissement": 3,
   "lat": 48.8645,
   "lon": 2.3615,
   "n_lieu": 23,
   "n_moments": 8,
   "argent_total_eur": 66638396,
   "depense_reelle_eur": 58222249,
   "engage_eur": 8416148,
   "depuis": 1889,
   "photo": "/img/lieux/carreau-du-temple.jpg"
  },
  {
   "slug": "maison-des-metallos",
   "name": "Maison des Métallos",
   "kind_fr": "Équipement culturel",
   "famille": "culture",
   "arrondissement": 11,
   "lat": 48.8666,
   "lon": 2.3778,
   "n_lieu": 42,
   "n_moments": 8,
   "argent_total_eur": 14886491,
   "depense_reelle_eur": 14886491,
   "engage_eur": 0,
   "depuis": 1999,
   "photo": "/img/lieux/maison-des-metallos.jpg"
  },
  {
   "slug": "parc-montsouris",
   "name": "Parc Montsouris",
   "kind_fr": "Parc",
   "famille": "vert",
   "arrondissement": 14,
   "lat": 48.8222,
   "lon": 2.3386,
   "n_lieu": 9,
   "n_moments": 8,
   "argent_total_eur": 227914,
   "depense_reelle_eur": 166735,
   "engage_eur": 61179,
   "depuis": 2001,
   "photo": "/img/lieux/parc-montsouris.jpg"
  },
  {
   "slug": "parc-monceau",
   "name": "Parc Monceau",
   "kind_fr": "Parc",
   "famille": "vert",
   "arrondissement": 8,
   "lat": 48.8797,
   "lon": 2.3089,
   "n_lieu": 12,
   "n_moments": 8,
   "argent_total_eur": 725844,
   "depense_reelle_eur": 579659,
   "engage_eur": 146185,
   "depuis": 1928,
   "photo": "/img/lieux/parc-monceau.jpg"
  },
  {
   "slug": "parc-andre-citroen",
   "name": "Parc André-Citroën",
   "kind_fr": "Parc",
   "famille": "vert",
   "arrondissement": 15,
   "lat": 48.8412,
   "lon": 2.2746,
   "n_lieu": 37,
   "n_moments": 8,
   "argent_total_eur": 11813549,
   "depense_reelle_eur": 9111788,
   "engage_eur": 2701761,
   "depuis": 1995,
   "photo": "/img/lieux/parc-andre-citroen.jpg"
  },
  {
   "slug": "parc-de-bercy",
   "name": "Parc de Bercy",
   "kind_fr": "Parc",
   "famille": "vert",
   "arrondissement": 12,
   "lat": 48.8352,
   "lon": 2.3826,
   "n_lieu": 31,
   "n_moments": 8,
   "argent_total_eur": 564149,
   "depense_reelle_eur": 105129,
   "engage_eur": 459020,
   "depuis": 1892,
   "photo": "/img/lieux/parc-de-bercy.jpg"
  },
  {
   "slug": "parc-de-la-villette",
   "name": "Parc de la Villette",
   "kind_fr": "Parc",
   "famille": "vert",
   "arrondissement": 19,
   "lat": 48.8938,
   "lon": 2.3906,
   "n_lieu": 19,
   "n_moments": 8,
   "argent_total_eur": 0,
   "depense_reelle_eur": 0,
   "engage_eur": 0,
   "depuis": 1894,
   "photo": "/img/lieux/parc-de-la-villette.jpg"
  },
  {
   "slug": "parc-georges-brassens",
   "name": "Parc Georges-Brassens",
   "kind_fr": "Parc",
   "famille": "vert",
   "arrondissement": 15,
   "lat": 48.8319,
   "lon": 2.2999,
   "n_lieu": 11,
   "n_moments": 8,
   "argent_total_eur": 183496,
   "depense_reelle_eur": 183496,
   "engage_eur": 0,
   "depuis": 1949,
   "photo": "/img/lieux/parc-georges-brassens.jpg"
  },
  {
   "slug": "parc-de-belleville",
   "name": "Parc de Belleville",
   "kind_fr": "Parc",
   "famille": "vert",
   "arrondissement": 20,
   "lat": 48.871,
   "lon": 2.3846,
   "n_lieu": 14,
   "n_moments": 8,
   "argent_total_eur": 216838,
   "depense_reelle_eur": 216838,
   "engage_eur": 0,
   "depuis": 1995,
   "photo": "/img/lieux/parc-de-belleville.jpg"
  },
  {
   "slug": "place-de-la-republique",
   "name": "Place de la République",
   "kind_fr": "Place",
   "famille": "urbain",
   "arrondissement": 3,
   "lat": 48.8676,
   "lon": 2.3637,
   "n_lieu": 32,
   "n_moments": 8,
   "argent_total_eur": 24538022,
   "depense_reelle_eur": 23938022,
   "engage_eur": 600000,
   "depuis": 2003,
   "photo": "/img/lieux/place-de-la-republique.jpg"
  },
  {
   "slug": "place-de-la-bastille",
   "name": "Place de la Bastille",
   "kind_fr": "Place",
   "famille": "urbain",
   "arrondissement": 4,
   "lat": 48.8532,
   "lon": 2.3692,
   "n_lieu": 19,
   "n_moments": 8,
   "argent_total_eur": 770454,
   "depense_reelle_eur": 0,
   "engage_eur": 770454,
   "depuis": 1888,
   "photo": "/img/lieux/place-de-la-bastille.jpg"
  },
  {
   "slug": "place-de-la-nation",
   "name": "Place de la Nation",
   "kind_fr": "Place",
   "famille": "urbain",
   "arrondissement": 12,
   "lat": 48.8484,
   "lon": 2.3958,
   "n_lieu": 11,
   "n_moments": 8,
   "argent_total_eur": 1510132,
   "depense_reelle_eur": 0,
   "engage_eur": 1510132,
   "depuis": 1995,
   "photo": "/img/lieux/place-de-la-nation.jpg"
  },
  {
   "slug": "marche-daligre",
   "name": "Marché d'Aligre",
   "kind_fr": "Marché",
   "famille": "services",
   "arrondissement": 12,
   "lat": 48.849,
   "lon": 2.3785,
   "n_lieu": 6,
   "n_moments": 8,
   "argent_total_eur": 1499979,
   "depense_reelle_eur": 1427209,
   "engage_eur": 72770,
   "depuis": 1897,
   "photo": "/img/lieux/marche-daligre.jpg"
  },
  {
   "slug": "marche-saint-quentin",
   "name": "Marché Saint-Quentin",
   "kind_fr": "Marché couvert",
   "famille": "services",
   "arrondissement": 10,
   "lat": 48.8781,
   "lon": 2.3577,
   "n_lieu": 5,
   "n_moments": 6,
   "argent_total_eur": 0,
   "depense_reelle_eur": 0,
   "engage_eur": 0,
   "depuis": 2000,
   "photo": "/img/lieux/marche-saint-quentin.jpg"
  },
  {
   "slug": "hotel-de-ville",
   "name": "Hôtel de Ville",
   "kind_fr": "Monument",
   "famille": "urbain",
   "arrondissement": 4,
   "lat": 48.8566,
   "lon": 2.3522,
   "n_lieu": 8,
   "n_moments": 8,
   "argent_total_eur": 20018198,
   "depense_reelle_eur": 17760260,
   "engage_eur": 2257938,
   "depuis": 1997,
   "photo": "/img/lieux/hotel-de-ville.jpg"
  },
  {
   "slug": "canal-saint-martin",
   "name": "Canal Saint-Martin",
   "kind_fr": "Infrastructure",
   "famille": "services",
   "arrondissement": 10,
   "lat": 48.8712,
   "lon": 2.366,
   "n_lieu": 25,
   "n_moments": 8,
   "argent_total_eur": 12459702,
   "depense_reelle_eur": 11921302,
   "engage_eur": 538400,
   "depuis": 1883,
   "photo": "/img/lieux/canal-saint-martin.jpg"
  },
  {
   "slug": "pavillon-de-larsenal",
   "name": "Pavillon de l'Arsenal",
   "kind_fr": "Équipement",
   "famille": "services",
   "arrondissement": 4,
   "lat": 48.8511,
   "lon": 2.362,
   "n_lieu": 26,
   "n_moments": 8,
   "argent_total_eur": 16913369,
   "depense_reelle_eur": 15769449,
   "engage_eur": 1143920,
   "depuis": 1998,
   "photo": "/img/lieux/pavillon-de-larsenal.jpg"
  },
  {
   "slug": "serres-dauteuil",
   "name": "Serres d'Auteuil",
   "kind_fr": "Jardin",
   "famille": "vert",
   "arrondissement": 16,
   "lat": 48.8464,
   "lon": 2.2523,
   "n_lieu": 11,
   "n_moments": 7,
   "argent_total_eur": 9691683,
   "depense_reelle_eur": 8602947,
   "engage_eur": 1088736,
   "depuis": 1995,
   "photo": "/img/lieux/serres-dauteuil.jpg"
  },
  {
   "slug": "pere-lachaise",
   "name": "Cimetière du Père-Lachaise",
   "kind_fr": "Cimetière",
   "famille": "vert",
   "arrondissement": 20,
   "lat": 48.861,
   "lon": 2.3933,
   "n_lieu": 33,
   "n_moments": 8,
   "argent_total_eur": 764026,
   "depense_reelle_eur": 0,
   "engage_eur": 764026,
   "depuis": 1888,
   "photo": "/img/lieux/pere-lachaise.jpg"
  },
  {
   "slug": "gymnase-japy",
   "name": "Gymnase Japy",
   "kind_fr": "Gymnase",
   "famille": "sport",
   "arrondissement": 11,
   "lat": 48.8577,
   "lon": 2.38,
   "n_lieu": 4,
   "n_moments": 4,
   "argent_total_eur": 128392,
   "depense_reelle_eur": 0,
   "engage_eur": 128392,
   "depuis": 1885,
   "photo": "/img/lieux/gymnase-japy.jpg"
  },
  {
   "slug": "bourse-du-travail",
   "name": "Bourse du Travail",
   "kind_fr": "Équipement",
   "famille": "services",
   "arrondissement": 10,
   "lat": 48.869041,
   "lon": 2.362096,
   "n_lieu": 1,
   "n_moments": 1,
   "argent_total_eur": 4346388,
   "depense_reelle_eur": 4206800,
   "engage_eur": 139588,
   "depuis": 1890,
   "photo": "/img/lieux/bourse-du-travail.jpg"
  },
  {
   "slug": "mairie-du-18e",
   "name": "Mairie du 18e",
   "kind_fr": "Mairie",
   "famille": "services",
   "arrondissement": 18,
   "lat": 48.8927,
   "lon": 2.3444,
   "n_lieu": 12,
   "n_moments": 8,
   "argent_total_eur": 1633824,
   "depense_reelle_eur": 811731,
   "engage_eur": 822092,
   "depuis": 1996,
   "photo": "/img/lieux/mairie-du-18e.jpg"
  },
  {
   "slug": "bibliotheque-historique",
   "name": "Bibliothèque historique (BHVP)",
   "kind_fr": "Bibliothèque",
   "famille": "culture",
   "arrondissement": 4,
   "lat": 48.8556,
   "lon": 2.3585,
   "n_lieu": 0,
   "n_moments": 1,
   "argent_total_eur": 0,
   "depense_reelle_eur": 0,
   "engage_eur": 0,
   "depuis": 1930,
   "photo": "/img/lieux/bibliotheque-historique.jpg"
  },
  {
   "slug": "halle-saint-pierre",
   "name": "Halle Saint-Pierre",
   "kind_fr": "Équipement",
   "famille": "services",
   "arrondissement": 18,
   "lat": 48.8853,
   "lon": 2.3419,
   "n_lieu": 25,
   "n_moments": 8,
   "argent_total_eur": 400000,
   "depense_reelle_eur": 400000,
   "engage_eur": 0,
   "depuis": 2001,
   "photo": "/img/lieux/halle-saint-pierre.jpg"
  },
  {
   "slug": "theatre-13",
   "name": "Théâtre 13",
   "kind_fr": "Théâtre",
   "famille": "culture",
   "arrondissement": 13,
   "lat": 48.8291,
   "lon": 2.3562,
   "n_lieu": 16,
   "n_moments": 8,
   "argent_total_eur": 0,
   "depense_reelle_eur": 0,
   "engage_eur": 0,
   "depuis": 2002,
   "photo": null
  },
  {
   "slug": "kiosque-fleurs-cite",
   "name": "Marché aux fleurs de la Cité",
   "kind_fr": "Marché",
   "famille": "services",
   "arrondissement": 4,
   "lat": 48.8555,
   "lon": 2.3474,
   "n_lieu": 5,
   "n_moments": 6,
   "argent_total_eur": 97211,
   "depense_reelle_eur": 97211,
   "engage_eur": 0,
   "depuis": 2003,
   "photo": "/img/lieux/kiosque-fleurs-cite.jpg"
  },
  {
   "slug": "stade-jean-bouin",
   "name": "Stade Jean-Bouin",
   "kind_fr": "Stade",
   "famille": "sport",
   "arrondissement": 16,
   "lat": 48.8432,
   "lon": 2.253,
   "n_lieu": 36,
   "n_moments": 8,
   "argent_total_eur": 167973929,
   "depense_reelle_eur": 157751845,
   "engage_eur": 10222084,
   "depuis": 1929,
   "photo": "/img/lieux/stade-jean-bouin.jpg"
  },
  {
   "slug": "square-du-vert-galant",
   "name": "Square du Vert-Galant",
   "kind_fr": "Square",
   "famille": "vert",
   "arrondissement": 1,
   "lat": 48.8574,
   "lon": 2.341,
   "n_lieu": 1,
   "n_moments": 1,
   "argent_total_eur": 0,
   "depense_reelle_eur": 0,
   "engage_eur": 0,
   "depuis": 1995,
   "photo": "/img/lieux/square-du-vert-galant.jpg"
  },
  {
   "slug": "fontaine-saint-michel",
   "name": "Fontaine Saint-Michel",
   "kind_fr": "Monument",
   "famille": "urbain",
   "arrondissement": 6,
   "lat": 48.8534,
   "lon": 2.3438,
   "n_lieu": 2,
   "n_moments": 5,
   "argent_total_eur": 33880,
   "depense_reelle_eur": 0,
   "engage_eur": 33880,
   "depuis": 1998,
   "photo": "/img/lieux/fontaine-saint-michel.jpg"
  },
  {
   "slug": "musee-carnavalet",
   "name": "Musée Carnavalet",
   "kind_fr": "Musée",
   "famille": "culture",
   "arrondissement": 3,
   "lat": 48.85706,
   "lon": 2.36285,
   "n_lieu": 43,
   "n_moments": 8,
   "argent_total_eur": 44615566,
   "depense_reelle_eur": 4840182,
   "engage_eur": 39775385,
   "depuis": 1902,
   "photo": "/img/lieux/musee-carnavalet.jpg"
  },
  {
   "slug": "petit-palais",
   "name": "Petit Palais",
   "kind_fr": "Musée",
   "famille": "culture",
   "arrondissement": 8,
   "lat": 48.86608,
   "lon": 2.31364,
   "n_lieu": 38,
   "n_moments": 8,
   "argent_total_eur": 832805,
   "depense_reelle_eur": 832805,
   "engage_eur": 0,
   "depuis": 1996,
   "photo": "/img/lieux/petit-palais.jpg"
  },
  {
   "slug": "musee-d-art-moderne-de-paris",
   "name": "Musée d'Art moderne de Paris",
   "kind_fr": "Musée",
   "famille": "culture",
   "arrondissement": 16,
   "lat": 48.86438,
   "lon": 2.29353,
   "n_lieu": 41,
   "n_moments": 8,
   "argent_total_eur": 0,
   "depense_reelle_eur": 0,
   "engage_eur": 0,
   "depuis": 1995,
   "photo": "/img/lieux/musee-d-art-moderne-de-paris.jpg"
  },
  {
   "slug": "catacombes-de-paris",
   "name": "Catacombes de Paris",
   "kind_fr": "Musée",
   "famille": "culture",
   "arrondissement": 14,
   "lat": 48.83398,
   "lon": 2.33251,
   "n_lieu": 8,
   "n_moments": 7,
   "argent_total_eur": 0,
   "depense_reelle_eur": 0,
   "engage_eur": 0,
   "depuis": 1927,
   "photo": "/img/lieux/catacombes-de-paris.jpg"
  },
  {
   "slug": "maison-de-victor-hugo",
   "name": "Maison de Victor Hugo",
   "kind_fr": "Musée",
   "famille": "culture",
   "arrondissement": 4,
   "lat": 48.85482,
   "lon": 2.36613,
   "n_lieu": 14,
   "n_moments": 8,
   "argent_total_eur": 0,
   "depense_reelle_eur": 0,
   "engage_eur": 0,
   "depuis": 1914,
   "photo": "/img/lieux/maison-de-victor-hugo.jpg"
  },
  {
   "slug": "musee-de-la-vie-romantique",
   "name": "Musée de la Vie romantique",
   "kind_fr": "Musée",
   "famille": "culture",
   "arrondissement": 9,
   "lat": 48.8809,
   "lon": 2.33329,
   "n_lieu": 12,
   "n_moments": 8,
   "argent_total_eur": 0,
   "depense_reelle_eur": 0,
   "engage_eur": 0,
   "depuis": 1999,
   "photo": "/img/lieux/musee-de-la-vie-romantique.jpg"
  },
  {
   "slug": "musee-cognacq-jay",
   "name": "Musée Cognacq-Jay",
   "kind_fr": "Musée",
   "famille": "culture",
   "arrondissement": 3,
   "lat": 48.8582,
   "lon": 2.36147,
   "n_lieu": 1,
   "n_moments": 1,
   "argent_total_eur": 263333,
   "depense_reelle_eur": 0,
   "engage_eur": 263333,
   "depuis": 1936,
   "photo": "/img/lieux/musee-cognacq-jay.jpg"
  },
  {
   "slug": "musee-bourdelle",
   "name": "Musée Bourdelle",
   "kind_fr": "Musée",
   "famille": "culture",
   "arrondissement": 15,
   "lat": 48.84298,
   "lon": 2.31859,
   "n_lieu": 19,
   "n_moments": 8,
   "argent_total_eur": 4379111,
   "depense_reelle_eur": 2316573,
   "engage_eur": 2062537,
   "depuis": 1934,
   "photo": "/img/lieux/musee-bourdelle.jpg"
  },
  {
   "slug": "musee-zadkine",
   "name": "Musée Zadkine",
   "kind_fr": "Musée",
   "famille": "culture",
   "arrondissement": 6,
   "lat": 48.84303,
   "lon": 2.33404,
   "n_lieu": 10,
   "n_moments": 8,
   "argent_total_eur": 0,
   "depense_reelle_eur": 0,
   "engage_eur": 0,
   "depuis": 1997,
   "photo": "/img/lieux/musee-zadkine.jpg"
  },
  {
   "slug": "maison-de-balzac",
   "name": "Maison de Balzac",
   "kind_fr": "Musée",
   "famille": "culture",
   "arrondissement": 16,
   "lat": 48.85536,
   "lon": 2.28085,
   "n_lieu": 7,
   "n_moments": 7,
   "argent_total_eur": 48689,
   "depense_reelle_eur": 0,
   "engage_eur": 48689,
   "depuis": 1921,
   "photo": "/img/lieux/maison-de-balzac.jpg"
  },
  {
   "slug": "musee-cernuschi",
   "name": "Musée Cernuschi",
   "kind_fr": "Musée",
   "famille": "culture",
   "arrondissement": 8,
   "lat": 48.87964,
   "lon": 2.31246,
   "n_lieu": 34,
   "n_moments": 8,
   "argent_total_eur": 90780,
   "depense_reelle_eur": 90780,
   "engage_eur": 0,
   "depuis": 1899,
   "photo": "/img/lieux/musee-cernuschi.jpg"
  },
  {
   "slug": "palais-galliera",
   "name": "Palais Galliera",
   "kind_fr": "Musée",
   "famille": "culture",
   "arrondissement": 16,
   "lat": 48.86597,
   "lon": 2.29657,
   "n_lieu": 20,
   "n_moments": 8,
   "argent_total_eur": 1660825,
   "depense_reelle_eur": 0,
   "engage_eur": 1660825,
   "depuis": 1895,
   "photo": "/img/lieux/palais-galliera.jpg"
  },
  {
   "slug": "memorial-du-marechal-leclerc-et-musee-jean-moulin",
   "name": "Mémorial du Maréchal Leclerc et musée Jean Moulin",
   "kind_fr": "Musée",
   "famille": "culture",
   "arrondissement": 15,
   "lat": 48.84066,
   "lon": 2.31967,
   "n_lieu": 10,
   "n_moments": 8,
   "argent_total_eur": 0,
   "depense_reelle_eur": 0,
   "engage_eur": 0,
   "depuis": 1995,
   "photo": "/img/lieux/memorial-du-marechal-leclerc-et-musee-jean-moulin.jpg"
  },
  {
   "slug": "crypte-archeologique-de-l-ile-de-la-cite",
   "name": "Crypte archéologique de l'île de la Cité",
   "kind_fr": "Musée",
   "famille": "culture",
   "arrondissement": 4,
   "lat": 48.85321,
   "lon": 2.3487,
   "n_lieu": 4,
   "n_moments": 4,
   "argent_total_eur": 0,
   "depense_reelle_eur": 0,
   "engage_eur": 0,
   "depuis": 1998,
   "photo": "/img/lieux/crypte-archeologique-de-l-ile-de-la-cite.jpg"
  },
  {
   "slug": "theatre-du-rond-point",
   "name": "Théâtre du Rond-Point",
   "kind_fr": "Théâtre",
   "famille": "culture",
   "arrondissement": 8,
   "lat": 48.86778,
   "lon": 2.31055,
   "n_lieu": 26,
   "n_moments": 8,
   "argent_total_eur": 17725705,
   "depense_reelle_eur": 17433705,
   "engage_eur": 292000,
   "depuis": 1999,
   "photo": "/img/lieux/theatre-du-rond-point.jpg"
  },
  {
   "slug": "theatre-silvia-monfort",
   "name": "Théâtre Silvia Monfort",
   "kind_fr": "Théâtre",
   "famille": "culture",
   "arrondissement": 15,
   "lat": 48.8303,
   "lon": 2.30182,
   "n_lieu": 23,
   "n_moments": 8,
   "argent_total_eur": 2959000,
   "depense_reelle_eur": 2959000,
   "engage_eur": 0,
   "depuis": 2002,
   "photo": "/img/lieux/theatre-silvia-monfort.jpg"
  },
  {
   "slug": "theatre-paris-villette",
   "name": "Théâtre Paris-Villette",
   "kind_fr": "Théâtre",
   "famille": "culture",
   "arrondissement": 19,
   "lat": 48.88895,
   "lon": 2.39245,
   "n_lieu": 2,
   "n_moments": 2,
   "argent_total_eur": 7626181,
   "depense_reelle_eur": 7455500,
   "engage_eur": 170681,
   "depuis": 2016,
   "photo": "/img/lieux/theatre-paris-villette.jpg"
  },
  {
   "slug": "theatre-14",
   "name": "Théâtre 14",
   "kind_fr": "Théâtre",
   "famille": "culture",
   "arrondissement": 14,
   "lat": 48.8259,
   "lon": 2.30685,
   "n_lieu": 13,
   "n_moments": 7,
   "argent_total_eur": 407259,
   "depense_reelle_eur": 0,
   "engage_eur": 407259,
   "depuis": 1999,
   "photo": null
  },
  {
   "slug": "adidas-arena",
   "name": "Adidas Arena",
   "kind_fr": "Équipement",
   "famille": "sport",
   "arrondissement": 18,
   "lat": 48.89809,
   "lon": 2.34744,
   "n_lieu": 13,
   "n_moments": 8,
   "argent_total_eur": 589379,
   "depense_reelle_eur": 0,
   "engage_eur": 589379,
   "depuis": 2018,
   "photo": "/img/lieux/adidas-arena.jpg"
  },
  {
   "slug": "porte-de-la-chapelle",
   "name": "Porte de la Chapelle",
   "kind_fr": "Place",
   "famille": "urbain",
   "arrondissement": 18,
   "lat": 48.90002,
   "lon": 2.35857,
   "n_lieu": 26,
   "n_moments": 8,
   "argent_total_eur": 39946553,
   "depense_reelle_eur": 36762691,
   "engage_eur": 3183862,
   "depuis": 1928,
   "photo": "/img/lieux/porte-de-la-chapelle.jpg"
  },
  {
   "slug": "porte-de-montreuil",
   "name": "Porte de Montreuil",
   "kind_fr": "Place",
   "famille": "urbain",
   "arrondissement": 20,
   "lat": 48.85439,
   "lon": 2.41427,
   "n_lieu": 30,
   "n_moments": 8,
   "argent_total_eur": 7927621,
   "depense_reelle_eur": 6237327,
   "engage_eur": 1690294,
   "depuis": 1923,
   "photo": "/img/lieux/porte-de-montreuil.jpg"
  },
  {
   "slug": "piscine-belliard",
   "name": "Piscine Belliard",
   "kind_fr": "Piscine",
   "famille": "sport",
   "arrondissement": 18,
   "lat": 48.89623,
   "lon": 2.33473,
   "n_lieu": 2,
   "n_moments": 8,
   "argent_total_eur": 15559538,
   "depense_reelle_eur": 14867538,
   "engage_eur": 692000,
   "depuis": 2016,
   "photo": null
  },
  {
   "slug": "mediatheque-james-baldwin",
   "name": "Médiathèque James Baldwin",
   "kind_fr": "Bibliothèque",
   "famille": "culture",
   "arrondissement": 19,
   "lat": 48.876813,
   "lon": 2.396678,
   "n_lieu": 2,
   "n_moments": 2,
   "argent_total_eur": 13162651,
   "depense_reelle_eur": 13162651,
   "engage_eur": 0,
   "depuis": 2019,
   "photo": "/img/lieux/mediatheque-james-baldwin.jpg"
  },
  {
   "slug": "stade-charlety",
   "name": "Stade Charléty",
   "kind_fr": "Stade",
   "famille": "sport",
   "arrondissement": 13,
   "lat": 48.81922,
   "lon": 2.34555,
   "n_lieu": 42,
   "n_moments": 8,
   "argent_total_eur": 36357395,
   "depense_reelle_eur": 3400646,
   "engage_eur": 32956748,
   "depuis": 1948,
   "photo": "/img/lieux/stade-charlety.jpg"
  },
  {
   "slug": "cirque-d-hiver",
   "name": "Cirque d'Hiver",
   "kind_fr": "Équipement culturel",
   "famille": "culture",
   "arrondissement": 11,
   "lat": 48.86312,
   "lon": 2.36727,
   "n_lieu": 1,
   "n_moments": 1,
   "argent_total_eur": 0,
   "depense_reelle_eur": 0,
   "engage_eur": 0,
   "depuis": 1887,
   "photo": "/img/lieux/cirque-d-hiver.jpg"
  },
  {
   "slug": "bibliotheque-forney",
   "name": "Bibliothèque Forney",
   "kind_fr": "Bibliothèque",
   "famille": "culture",
   "arrondissement": 4,
   "lat": 48.853389,
   "lon": 2.359078,
   "n_lieu": 7,
   "n_moments": 7,
   "argent_total_eur": 835426,
   "depense_reelle_eur": 0,
   "engage_eur": 835426,
   "depuis": 1900,
   "photo": "/img/lieux/bibliotheque-forney.jpg"
  },
  {
   "slug": "bibliotheque-de-l-heure-joyeuse",
   "name": "Bibliothèque de l'Heure joyeuse",
   "kind_fr": "Bibliothèque",
   "famille": "culture",
   "arrondissement": 5,
   "lat": 48.852064,
   "lon": 2.345104,
   "n_lieu": 1,
   "n_moments": 1,
   "argent_total_eur": 0,
   "depense_reelle_eur": 0,
   "engage_eur": 0,
   "depuis": 2003,
   "photo": "/img/lieux/bibliotheque-de-l-heure-joyeuse.jpg"
  },
  {
   "slug": "maison-de-la-poesie",
   "name": "Maison de la Poésie",
   "kind_fr": "Scène littéraire",
   "famille": "culture",
   "arrondissement": 3,
   "lat": 48.86218,
   "lon": 2.351844,
   "n_lieu": 19,
   "n_moments": 8,
   "argent_total_eur": 7524100,
   "depense_reelle_eur": 7259100,
   "engage_eur": 265000,
   "depuis": 1999,
   "photo": "/img/lieux/maison-de-la-poesie.jpg"
  },
  {
   "slug": "conservatoire-de-paris-crr",
   "name": "Conservatoire de Paris (CRR)",
   "kind_fr": "Conservatoire",
   "famille": "culture",
   "arrondissement": 8,
   "lat": 48.878516,
   "lon": 2.320699,
   "n_lieu": 21,
   "n_moments": 8,
   "argent_total_eur": 0,
   "depense_reelle_eur": 0,
   "engage_eur": 0,
   "depuis": 1995,
   "photo": "/img/lieux/conservatoire-de-paris-crr.jpg"
  },
  {
   "slug": "theatre-de-la-bastille",
   "name": "Théâtre de la Bastille",
   "kind_fr": "Théâtre",
   "famille": "culture",
   "arrondissement": 11,
   "lat": 48.855861,
   "lon": 2.375555,
   "n_lieu": 20,
   "n_moments": 8,
   "argent_total_eur": 0,
   "depense_reelle_eur": 0,
   "engage_eur": 0,
   "depuis": 1997,
   "photo": "/img/lieux/theatre-de-la-bastille.jpg"
  },
  {
   "slug": "theatre-de-la-cite-internationale",
   "name": "Théâtre de la Cité internationale",
   "kind_fr": "Théâtre",
   "famille": "culture",
   "arrondissement": 14,
   "lat": 48.820109,
   "lon": 2.338625,
   "n_lieu": 9,
   "n_moments": 8,
   "argent_total_eur": 0,
   "depense_reelle_eur": 0,
   "engage_eur": 0,
   "depuis": 2002,
   "photo": "/img/lieux/theatre-de-la-cite-internationale.jpg"
  },
  {
   "slug": "piscine-molitor",
   "name": "Piscine Molitor",
   "kind_fr": "Piscine",
   "famille": "sport",
   "arrondissement": 16,
   "lat": 48.845229,
   "lon": 2.262475,
   "n_lieu": 39,
   "n_moments": 8,
   "argent_total_eur": 0,
   "depense_reelle_eur": 0,
   "engage_eur": 0,
   "depuis": 1995,
   "photo": "/img/lieux/piscine-molitor.jpg"
  },
  {
   "slug": "parc-martin-luther-king",
   "name": "Parc Martin Luther King",
   "kind_fr": "Parc",
   "famille": "vert",
   "arrondissement": 17,
   "lat": 48.8912,
   "lon": 2.316,
   "n_lieu": 8,
   "n_moments": 8,
   "argent_total_eur": 208011,
   "depense_reelle_eur": 208011,
   "engage_eur": 0,
   "depuis": 2007,
   "photo": "/img/lieux/parc-martin-luther-king.jpg"
  },
  {
   "slug": "parc-floral-de-paris",
   "name": "Parc floral de Paris",
   "kind_fr": "Parc",
   "famille": "vert",
   "arrondissement": 12,
   "lat": 48.8355,
   "lon": 2.447,
   "n_lieu": 22,
   "n_moments": 8,
   "argent_total_eur": 8414,
   "depense_reelle_eur": 0,
   "engage_eur": 8414,
   "depuis": 1970,
   "photo": "/img/lieux/parc-floral-de-paris.jpg"
  },
  {
   "slug": "bois-de-vincennes",
   "name": "Bois de Vincennes",
   "kind_fr": "Bois",
   "famille": "vert",
   "arrondissement": 12,
   "lat": 48.847196,
   "lon": 2.404955,
   "n_lieu": 42,
   "n_moments": 8,
   "argent_total_eur": 14429939,
   "depense_reelle_eur": 10834266,
   "engage_eur": 3595673,
   "depuis": 2005,
   "photo": "/img/lieux/bois-de-vincennes.jpg"
  },
  {
   "slug": "bois-de-boulogne",
   "name": "Bois de Boulogne",
   "kind_fr": "Bois",
   "famille": "vert",
   "arrondissement": 16,
   "lat": 48.87511,
   "lon": 2.286939,
   "n_lieu": 44,
   "n_moments": 8,
   "argent_total_eur": 17488723,
   "depense_reelle_eur": 13001831,
   "engage_eur": 4486891,
   "depuis": 1899,
   "photo": "/img/lieux/bois-de-boulogne.jpg"
  },
  {
   "slug": "jardin-du-ranelagh",
   "name": "Jardin du Ranelagh",
   "kind_fr": "Jardin",
   "famille": "vert",
   "arrondissement": 16,
   "lat": 48.858701,
   "lon": 2.269321,
   "n_lieu": 10,
   "n_moments": 8,
   "argent_total_eur": 0,
   "depense_reelle_eur": 0,
   "engage_eur": 0,
   "depuis": 1999,
   "photo": "/img/lieux/jardin-du-ranelagh.jpg"
  },
  {
   "slug": "coulee-verte-rene-dumont",
   "name": "Coulée verte René-Dumont",
   "kind_fr": "Promenade",
   "famille": "vert",
   "arrondissement": 12,
   "lat": 48.8478,
   "lon": 2.376,
   "n_lieu": 3,
   "n_moments": 4,
   "argent_total_eur": 0,
   "depense_reelle_eur": 0,
   "engage_eur": 0,
   "depuis": 2000,
   "photo": "/img/lieux/coulee-verte-rene-dumont.jpg"
  },
  {
   "slug": "place-des-vosges",
   "name": "Place des Vosges",
   "kind_fr": "Place",
   "famille": "urbain",
   "arrondissement": 4,
   "lat": 48.85565,
   "lon": 2.36555,
   "n_lieu": 23,
   "n_moments": 8,
   "argent_total_eur": 1276945,
   "depense_reelle_eur": 894885,
   "engage_eur": 382060,
   "depuis": 1903,
   "photo": "/img/lieux/place-des-vosges.jpg"
  },
  {
   "slug": "place-d-italie",
   "name": "Place d'Italie",
   "kind_fr": "Place",
   "famille": "urbain",
   "arrondissement": 13,
   "lat": 48.831342,
   "lon": 2.355345,
   "n_lieu": 1,
   "n_moments": 7,
   "argent_total_eur": 1278005,
   "depense_reelle_eur": 0,
   "engage_eur": 1278005,
   "depuis": 2018,
   "photo": "/img/lieux/place-d-italie.jpg"
  },
  {
   "slug": "place-du-tertre",
   "name": "Place du Tertre",
   "kind_fr": "Place",
   "famille": "urbain",
   "arrondissement": 18,
   "lat": 48.886518,
   "lon": 2.340671,
   "n_lieu": 12,
   "n_moments": 8,
   "argent_total_eur": 0,
   "depense_reelle_eur": 0,
   "engage_eur": 0,
   "depuis": 1904,
   "photo": "/img/lieux/place-du-tertre.jpg"
  },
  {
   "slug": "arenes-de-lutece",
   "name": "Arènes de Lutèce",
   "kind_fr": "Monument",
   "famille": "urbain",
   "arrondissement": 5,
   "lat": 48.84514,
   "lon": 2.352319,
   "n_lieu": 4,
   "n_moments": 4,
   "argent_total_eur": 0,
   "depense_reelle_eur": 0,
   "engage_eur": 0,
   "depuis": 1883,
   "photo": "/img/lieux/arenes-de-lutece.jpg"
  },
  {
   "slug": "place-denfert-rochereau",
   "name": "Place Denfert-Rochereau",
   "kind_fr": "Place",
   "famille": "urbain",
   "arrondissement": 14,
   "lat": 48.833963,
   "lon": 2.331487,
   "n_lieu": 6,
   "n_moments": 8,
   "argent_total_eur": 10920465,
   "depense_reelle_eur": 901342,
   "engage_eur": 10019122,
   "depuis": 1895,
   "photo": "/img/lieux/place-denfert-rochereau.jpg"
  },
  {
   "slug": "fontaine-des-innocents",
   "name": "Fontaine des Innocents",
   "kind_fr": "Monument",
   "famille": "urbain",
   "arrondissement": 1,
   "lat": 48.860458,
   "lon": 2.347394,
   "n_lieu": 2,
   "n_moments": 2,
   "argent_total_eur": 1710941,
   "depense_reelle_eur": 0,
   "engage_eur": 1710941,
   "depuis": 2014,
   "photo": "/img/lieux/fontaine-des-innocents.jpg"
  },
  {
   "slug": "place-du-chatelet",
   "name": "Place du Châtelet",
   "kind_fr": "Place",
   "famille": "urbain",
   "arrondissement": 1,
   "lat": 48.857346,
   "lon": 2.34779,
   "n_lieu": 12,
   "n_moments": 7,
   "argent_total_eur": 85310,
   "depense_reelle_eur": 0,
   "engage_eur": 85310,
   "depuis": 1998,
   "photo": "/img/lieux/place-du-chatelet.jpg"
  },
  {
   "slug": "place-de-la-madeleine",
   "name": "Place de la Madeleine",
   "kind_fr": "Place",
   "famille": "urbain",
   "arrondissement": 8,
   "lat": 48.870779,
   "lon": 2.325,
   "n_lieu": 15,
   "n_moments": 8,
   "argent_total_eur": 1490043,
   "depense_reelle_eur": 0,
   "engage_eur": 1490043,
   "depuis": 1996,
   "photo": "/img/lieux/place-de-la-madeleine.jpg"
  },
  {
   "slug": "bourse-de-commerce",
   "name": "Bourse de Commerce",
   "kind_fr": "Monument",
   "famille": "services",
   "arrondissement": 1,
   "lat": 48.862819,
   "lon": 2.342834,
   "n_lieu": 3,
   "n_moments": 3,
   "argent_total_eur": 0,
   "depense_reelle_eur": 0,
   "engage_eur": 0,
   "depuis": 2004,
   "photo": "/img/lieux/bourse-de-commerce.jpg"
  },
  {
   "slug": "bassin-de-la-villette",
   "name": "Bassin de la Villette",
   "kind_fr": "Infrastructure",
   "famille": "services",
   "arrondissement": 19,
   "lat": 48.8861,
   "lon": 2.375,
   "n_lieu": 40,
   "n_moments": 8,
   "argent_total_eur": 805970,
   "depense_reelle_eur": 0,
   "engage_eur": 805970,
   "depuis": 1996,
   "photo": "/img/lieux/bassin-de-la-villette.jpg"
  },
  {
   "slug": "port-de-l-arsenal",
   "name": "Port de l'Arsenal",
   "kind_fr": "Infrastructure",
   "famille": "services",
   "arrondissement": 12,
   "lat": 48.8494,
   "lon": 2.3673,
   "n_lieu": 1,
   "n_moments": 3,
   "argent_total_eur": 138602,
   "depense_reelle_eur": 138602,
   "engage_eur": 0,
   "depuis": 2001,
   "photo": "/img/lieux/port-de-l-arsenal.jpg"
  },
  {
   "slug": "lac-daumesnil",
   "name": "Lac Daumesnil",
   "kind_fr": "Infrastructure",
   "famille": "vert",
   "arrondissement": 12,
   "lat": 48.830556,
   "lon": 2.415556,
   "n_lieu": 5,
   "n_moments": 8,
   "argent_total_eur": 395940,
   "depense_reelle_eur": 0,
   "engage_eur": 395940,
   "depuis": 1997,
   "photo": "/img/lieux/lac-daumesnil.jpg"
  },
  {
   "slug": "cimetiere-du-montparnasse",
   "name": "Cimetière du Montparnasse",
   "kind_fr": "Cimetière",
   "famille": "vert",
   "arrondissement": 14,
   "lat": 48.837778,
   "lon": 2.328333,
   "n_lieu": 4,
   "n_moments": 4,
   "argent_total_eur": 265279,
   "depense_reelle_eur": 0,
   "engage_eur": 265279,
   "depuis": 2001,
   "photo": "/img/lieux/cimetiere-du-montparnasse.jpg"
  },
  {
   "slug": "cimetiere-de-montmartre",
   "name": "Cimetière de Montmartre",
   "kind_fr": "Cimetière",
   "famille": "vert",
   "arrondissement": 18,
   "lat": 48.887778,
   "lon": 2.330278,
   "n_lieu": 8,
   "n_moments": 8,
   "argent_total_eur": 0,
   "depense_reelle_eur": 0,
   "engage_eur": 0,
   "depuis": 1997,
   "photo": null
  },
  {
   "slug": "cimetiere-de-passy",
   "name": "Cimetière de Passy",
   "kind_fr": "Cimetière",
   "famille": "vert",
   "arrondissement": 16,
   "lat": 48.8625,
   "lon": 2.285278,
   "n_lieu": 0,
   "n_moments": 1,
   "argent_total_eur": 0,
   "depense_reelle_eur": 0,
   "engage_eur": 0,
   "depuis": 1995,
   "photo": "/img/lieux/cimetiere-de-passy.jpg"
  },
  {
   "slug": "cimetiere-des-batignolles",
   "name": "Cimetière des Batignolles",
   "kind_fr": "Cimetière",
   "famille": "vert",
   "arrondissement": 17,
   "lat": 48.897719,
   "lon": 2.316717,
   "n_lieu": 6,
   "n_moments": 6,
   "argent_total_eur": 0,
   "depense_reelle_eur": 0,
   "engage_eur": 0,
   "depuis": 2000,
   "photo": "/img/lieux/cimetiere-des-batignolles.jpg"
  },
  {
   "slug": "fontaine-stravinsky",
   "name": "Fontaine Stravinsky",
   "kind_fr": "Monument",
   "famille": "urbain",
   "arrondissement": 4,
   "lat": 48.8595,
   "lon": 2.3515,
   "n_lieu": 1,
   "n_moments": 1,
   "argent_total_eur": 848818,
   "depense_reelle_eur": 0,
   "engage_eur": 848818,
   "depuis": 2019,
   "photo": "/img/lieux/fontaine-stravinsky.jpg"
  },
  {
   "slug": "fontaine-de-mars",
   "name": "Fontaine de Mars",
   "kind_fr": "Monument",
   "famille": "urbain",
   "arrondissement": 7,
   "lat": 48.8584,
   "lon": 2.3024,
   "n_lieu": 0,
   "n_moments": 0,
   "argent_total_eur": 0,
   "depense_reelle_eur": 0,
   "engage_eur": 0,
   "depuis": 1995,
   "photo": "/img/lieux/fontaine-de-mars.jpg"
  },
  {
   "slug": "le-mur-pour-la-paix",
   "name": "Le Mur pour la Paix",
   "kind_fr": "Monument",
   "famille": "urbain",
   "arrondissement": 7,
   "lat": 48.853444,
   "lon": 2.301986,
   "n_lieu": 9,
   "n_moments": 8,
   "argent_total_eur": 844802,
   "depense_reelle_eur": 0,
   "engage_eur": 844802,
   "depuis": 2001,
   "photo": "/img/lieux/le-mur-pour-la-paix.jpg"
  },
  {
   "slug": "ile-aux-cygnes",
   "name": "Île aux Cygnes",
   "kind_fr": "Promenade",
   "famille": "vert",
   "arrondissement": 15,
   "lat": 48.855335,
   "lon": 2.287308,
   "n_lieu": 6,
   "n_moments": 6,
   "argent_total_eur": 1457413,
   "depense_reelle_eur": 1405830,
   "engage_eur": 51583,
   "depuis": 2004,
   "photo": "/img/lieux/ile-aux-cygnes.jpg"
  },
  {
   "slug": "place-de-la-concorde",
   "name": "Place de la Concorde",
   "kind_fr": "Place",
   "famille": "urbain",
   "arrondissement": 8,
   "lat": 48.867063,
   "lon": 2.321554,
   "n_lieu": 35,
   "n_moments": 8,
   "argent_total_eur": 8514238,
   "depense_reelle_eur": 106818,
   "engage_eur": 8407420,
   "depuis": 1998,
   "photo": "/img/lieux/place-de-la-concorde.jpg"
  },
  {
   "slug": "place-charles-de-gaulle-etoile",
   "name": "Place Charles-de-Gaulle (Étoile)",
   "kind_fr": "Place",
   "famille": "urbain",
   "arrondissement": 8,
   "lat": 48.872916,
   "lon": 2.29402,
   "n_lieu": 11,
   "n_moments": 8,
   "argent_total_eur": 224597,
   "depense_reelle_eur": 224597,
   "engage_eur": 0,
   "depuis": 1998,
   "photo": "/img/lieux/place-charles-de-gaulle-etoile.jpg"
  },
  {
   "slug": "place-du-trocadero",
   "name": "Place du Trocadéro",
   "kind_fr": "Place",
   "famille": "urbain",
   "arrondissement": 16,
   "lat": 48.862539,
   "lon": 2.282334,
   "n_lieu": 6,
   "n_moments": 8,
   "argent_total_eur": 0,
   "depense_reelle_eur": 0,
   "engage_eur": 0,
   "depuis": 2000,
   "photo": "/img/lieux/place-du-trocadero.jpg"
  },
  {
   "slug": "place-du-pantheon",
   "name": "Place du Panthéon",
   "kind_fr": "Place",
   "famille": "urbain",
   "arrondissement": 5,
   "lat": 48.845939,
   "lon": 2.34571,
   "n_lieu": 5,
   "n_moments": 8,
   "argent_total_eur": 0,
   "depense_reelle_eur": 0,
   "engage_eur": 0,
   "depuis": 2016,
   "photo": "/img/lieux/place-du-pantheon.jpg"
  },
  {
   "slug": "place-pigalle",
   "name": "Place Pigalle",
   "kind_fr": "Place",
   "famille": "urbain",
   "arrondissement": 18,
   "lat": 48.881997,
   "lon": 2.337318,
   "n_lieu": 0,
   "n_moments": 0,
   "argent_total_eur": 1778088,
   "depense_reelle_eur": 1778088,
   "engage_eur": 0,
   "depuis": 1997,
   "photo": "/img/lieux/place-pigalle.jpg"
  },
  {
   "slug": "place-de-clichy",
   "name": "Place de Clichy",
   "kind_fr": "Place",
   "famille": "urbain",
   "arrondissement": 17,
   "lat": 48.88352,
   "lon": 2.32739,
   "n_lieu": 9,
   "n_moments": 8,
   "argent_total_eur": 0,
   "depense_reelle_eur": 0,
   "engage_eur": 0,
   "depuis": 2004,
   "photo": "/img/lieux/place-de-clichy.jpg"
  },
  {
   "slug": "place-saint-sulpice",
   "name": "Place Saint-Sulpice",
   "kind_fr": "Place",
   "famille": "urbain",
   "arrondissement": 6,
   "lat": 48.85083,
   "lon": 2.33333,
   "n_lieu": 3,
   "n_moments": 3,
   "argent_total_eur": 0,
   "depense_reelle_eur": 0,
   "engage_eur": 0,
   "depuis": 2004,
   "photo": "/img/lieux/place-saint-sulpice.jpg"
  },
  {
   "slug": "place-gambetta",
   "name": "Place Gambetta",
   "kind_fr": "Place",
   "famille": "urbain",
   "arrondissement": 20,
   "lat": 48.864886,
   "lon": 2.398475,
   "n_lieu": 5,
   "n_moments": 6,
   "argent_total_eur": 0,
   "depense_reelle_eur": 0,
   "engage_eur": 0,
   "depuis": 2001,
   "photo": "/img/lieux/place-gambetta.jpg"
  },
  {
   "slug": "place-leon-blum",
   "name": "Place Léon-Blum",
   "kind_fr": "Place",
   "famille": "urbain",
   "arrondissement": 11,
   "lat": 48.858045,
   "lon": 2.380503,
   "n_lieu": 2,
   "n_moments": 6,
   "argent_total_eur": 0,
   "depense_reelle_eur": 0,
   "engage_eur": 0,
   "depuis": 1999,
   "photo": "/img/lieux/place-leon-blum.jpg"
  },
  {
   "slug": "place-des-fetes",
   "name": "Place des Fêtes",
   "kind_fr": "Place",
   "famille": "urbain",
   "arrondissement": 19,
   "lat": 48.877435,
   "lon": 2.393049,
   "n_lieu": 8,
   "n_moments": 8,
   "argent_total_eur": 2200700,
   "depense_reelle_eur": 0,
   "engage_eur": 2200700,
   "depuis": 1995,
   "photo": "/img/lieux/place-des-fetes.jpg"
  },
  {
   "slug": "square-rene-viviani",
   "name": "Square René-Viviani",
   "kind_fr": "Square",
   "famille": "urbain",
   "arrondissement": 5,
   "lat": 48.852209,
   "lon": 2.347579,
   "n_lieu": 0,
   "n_moments": 0,
   "argent_total_eur": 0,
   "depense_reelle_eur": 0,
   "engage_eur": 0,
   "depuis": 1995,
   "photo": "/img/lieux/square-rene-viviani.jpg"
  },
  {
   "slug": "square-du-temple",
   "name": "Square du Temple",
   "kind_fr": "Square",
   "famille": "urbain",
   "arrondissement": 3,
   "lat": 48.863651,
   "lon": 2.358599,
   "n_lieu": 2,
   "n_moments": 2,
   "argent_total_eur": 36681,
   "depense_reelle_eur": 36681,
   "engage_eur": 0,
   "depuis": 2013,
   "photo": "/img/lieux/square-du-temple.jpg"
  },
  {
   "slug": "square-des-batignolles",
   "name": "Square des Batignolles",
   "kind_fr": "Square",
   "famille": "urbain",
   "arrondissement": 17,
   "lat": 48.8875,
   "lon": 2.316389,
   "n_lieu": 3,
   "n_moments": 3,
   "argent_total_eur": 402846,
   "depense_reelle_eur": 168646,
   "engage_eur": 234200,
   "depuis": 1997,
   "photo": "/img/lieux/square-des-batignolles.jpg"
  },
  {
   "slug": "marche-saint-germain",
   "name": "Marché Saint-Germain",
   "kind_fr": "Marché couvert",
   "famille": "services",
   "arrondissement": 6,
   "lat": 48.848177,
   "lon": 2.375373,
   "n_lieu": 1,
   "n_moments": 1,
   "argent_total_eur": 34440,
   "depense_reelle_eur": 0,
   "engage_eur": 34440,
   "depuis": 2014,
   "photo": "/img/lieux/marche-saint-germain.jpg"
  },
  {
   "slug": "marche-saint-martin",
   "name": "Marché Saint-Martin",
   "kind_fr": "Marché couvert",
   "famille": "services",
   "arrondissement": 10,
   "lat": 48.848177,
   "lon": 2.375373,
   "n_lieu": 0,
   "n_moments": 0,
   "argent_total_eur": 150568,
   "depense_reelle_eur": 0,
   "engage_eur": 150568,
   "depuis": 1995,
   "photo": "/img/lieux/marche-saint-martin.jpg"
  },
  {
   "slug": "marche-secretan",
   "name": "Marché Secrétan",
   "kind_fr": "Marché couvert",
   "famille": "services",
   "arrondissement": 19,
   "lat": 48.880745,
   "lon": 2.374397,
   "n_lieu": 4,
   "n_moments": 4,
   "argent_total_eur": 798099,
   "depense_reelle_eur": 798099,
   "engage_eur": 0,
   "depuis": 1995,
   "photo": "/img/lieux/marche-secretan.jpg"
  },
  {
   "slug": "mairie-du-5e",
   "name": "Mairie du 5e",
   "kind_fr": "Mairie",
   "famille": "services",
   "arrondissement": 5,
   "lat": 48.8459,
   "lon": 2.3462,
   "n_lieu": 14,
   "n_moments": 8,
   "argent_total_eur": 1975685,
   "depense_reelle_eur": 951477,
   "engage_eur": 1024208,
   "depuis": 1997,
   "photo": null
  },
  {
   "slug": "mairie-du-11e",
   "name": "Mairie du 11e",
   "kind_fr": "Mairie",
   "famille": "services",
   "arrondissement": 11,
   "lat": 48.858,
   "lon": 2.3805,
   "n_lieu": 28,
   "n_moments": 8,
   "argent_total_eur": 3596082,
   "depense_reelle_eur": 2586402,
   "engage_eur": 1009680,
   "depuis": 1998,
   "photo": "/img/lieux/mairie-du-11e.jpg"
  },
  {
   "slug": "mairie-du-20e",
   "name": "Mairie du 20e",
   "kind_fr": "Mairie",
   "famille": "services",
   "arrondissement": 20,
   "lat": 48.8636,
   "lon": 2.4009,
   "n_lieu": 18,
   "n_moments": 8,
   "argent_total_eur": 1767731,
   "depense_reelle_eur": 846720,
   "engage_eur": 921011,
   "depuis": 1998,
   "photo": "/img/lieux/mairie-du-20e.jpg"
  },
  {
   "slug": "musee-de-la-liberation-de-paris",
   "name": "Musée de la Libération de Paris",
   "kind_fr": "Musée",
   "famille": "culture",
   "arrondissement": 14,
   "lat": 48.856772,
   "lon": 2.351429,
   "n_lieu": 3,
   "n_moments": 4,
   "argent_total_eur": 0,
   "depense_reelle_eur": 0,
   "engage_eur": 0,
   "depuis": 2012,
   "photo": "/img/lieux/musee-de-la-liberation-de-paris.jpg"
  },
  {
   "slug": "maison-europeenne-de-la-photographie",
   "name": "Maison Européenne de la Photographie",
   "kind_fr": "Équipement culturel",
   "famille": "culture",
   "arrondissement": 4,
   "lat": 48.825945,
   "lon": 2.358291,
   "n_lieu": 22,
   "n_moments": 8,
   "argent_total_eur": 97974,
   "depense_reelle_eur": 0,
   "engage_eur": 97974,
   "depuis": 1999,
   "photo": "/img/lieux/maison-europeenne-de-la-photographie.jpg"
  },
  {
   "slug": "mediatheque-marguerite-yourcenar",
   "name": "Médiathèque Marguerite Yourcenar",
   "kind_fr": "Médiathèque",
   "famille": "culture",
   "arrondissement": 15,
   "lat": 48.852563,
   "lon": 2.294426,
   "n_lieu": 3,
   "n_moments": 3,
   "argent_total_eur": 112591,
   "depense_reelle_eur": 0,
   "engage_eur": 112591,
   "depuis": 2007,
   "photo": "/img/lieux/mediatheque-marguerite-yourcenar.jpg"
  },
  {
   "slug": "theatre-dunois",
   "name": "Théâtre Dunois",
   "kind_fr": "Théâtre",
   "famille": "culture",
   "arrondissement": 13,
   "lat": 48.831667,
   "lon": 2.368401,
   "n_lieu": 9,
   "n_moments": 8,
   "argent_total_eur": 1210000,
   "depense_reelle_eur": 1210000,
   "engage_eur": 0,
   "depuis": 1996,
   "photo": "/img/lieux/theatre-dunois.jpg"
  },
  {
   "slug": "theatre-du-soleil",
   "name": "Théâtre du Soleil",
   "kind_fr": "Théâtre",
   "famille": "culture",
   "arrondissement": 12,
   "lat": 48.874297,
   "lon": 2.394923,
   "n_lieu": 8,
   "n_moments": 8,
   "argent_total_eur": 664031,
   "depense_reelle_eur": 554686,
   "engage_eur": 109345,
   "depuis": 2002,
   "photo": "/img/lieux/theatre-du-soleil.jpg"
  },
  {
   "slug": "piscine-suzanne-berlioux",
   "name": "Piscine Suzanne-Berlioux",
   "kind_fr": "Piscine",
   "famille": "sport",
   "arrondissement": 1,
   "lat": 48.88826,
   "lon": 2.371955,
   "n_lieu": 14,
   "n_moments": 8,
   "argent_total_eur": 10380,
   "depense_reelle_eur": 10380,
   "engage_eur": 0,
   "depuis": 1998,
   "photo": null
  },
  {
   "slug": "stade-pierre-de-coubertin",
   "name": "Stade Pierre-de-Coubertin",
   "kind_fr": "Stade",
   "famille": "sport",
   "arrondissement": 16,
   "lat": 48.81796,
   "lon": 2.344472,
   "n_lieu": 3,
   "n_moments": 4,
   "argent_total_eur": 1037199,
   "depense_reelle_eur": 0,
   "engage_eur": 1037199,
   "depuis": 1995,
   "photo": "/img/lieux/stade-pierre-de-coubertin.jpg"
  },
  {
   "slug": "halle-georges-carpentier",
   "name": "Halle Georges-Carpentier",
   "kind_fr": "Salle sportive",
   "famille": "sport",
   "arrondissement": 13,
   "lat": 48.85976,
   "lon": 2.346704,
   "n_lieu": 2,
   "n_moments": 2,
   "argent_total_eur": 0,
   "depense_reelle_eur": 0,
   "engage_eur": 0,
   "depuis": 1995,
   "photo": "/img/lieux/halle-georges-carpentier.jpg"
  },
  {
   "slug": "square-louise-michel",
   "name": "Square Louise-Michel",
   "kind_fr": "Square",
   "famille": "urbain",
   "arrondissement": 18,
   "lat": 48.885,
   "lon": 2.343333,
   "n_lieu": 1,
   "n_moments": 1,
   "argent_total_eur": 0,
   "depense_reelle_eur": 0,
   "engage_eur": 0,
   "depuis": 2022,
   "photo": "/img/lieux/square-louise-michel.jpg"
  },
  {
   "slug": "grande-halle-de-la-villette",
   "name": "Grande Halle de la Villette",
   "kind_fr": "Équipement culturel",
   "famille": "culture",
   "arrondissement": 19,
   "lat": 48.886111,
   "lon": 2.376389,
   "n_lieu": 13,
   "n_moments": 8,
   "argent_total_eur": 0,
   "depense_reelle_eur": 0,
   "engage_eur": 0,
   "depuis": 2000,
   "photo": "/img/lieux/grande-halle-de-la-villette.jpg"
  },
  {
   "slug": "jardin-nelson-mandela",
   "name": "Jardin Nelson Mandela",
   "kind_fr": "Jardin",
   "famille": "vert",
   "arrondissement": 1,
   "lat": 48.8625,
   "lon": 2.344722,
   "n_lieu": 2,
   "n_moments": 2,
   "argent_total_eur": 0,
   "depense_reelle_eur": 0,
   "engage_eur": 0,
   "depuis": 2014,
   "photo": "/img/lieux/jardin-nelson-mandela.jpg"
  },
  {
   "slug": "velodrome-jacques-anquetil",
   "name": "Vélodrome Jacques-Anquetil",
   "kind_fr": "Vélodrome",
   "famille": "sport",
   "arrondissement": 12,
   "lat": 48.82596,
   "lon": 2.41173,
   "n_lieu": 2,
   "n_moments": 2,
   "argent_total_eur": 268300,
   "depense_reelle_eur": 0,
   "engage_eur": 268300,
   "depuis": 1998,
   "photo": "/img/lieux/velodrome-jacques-anquetil.jpg"
  },
  {
   "slug": "jardin-atlantique",
   "name": "Jardin Atlantique",
   "kind_fr": "Jardin",
   "famille": "vert",
   "arrondissement": 15,
   "lat": 48.842,
   "lon": 2.3195,
   "n_lieu": 6,
   "n_moments": 7,
   "argent_total_eur": 130882,
   "depense_reelle_eur": 103810,
   "engage_eur": 27072,
   "depuis": 2002,
   "photo": "/img/lieux/jardin-atlantique.jpg"
  },
  {
   "slug": "jardin-anne-frank",
   "name": "Jardin Anne-Frank",
   "kind_fr": "Jardin",
   "famille": "vert",
   "arrondissement": 3,
   "lat": 48.8636,
   "lon": 2.3616,
   "n_lieu": 3,
   "n_moments": 2,
   "argent_total_eur": 67213,
   "depense_reelle_eur": 67213,
   "engage_eur": 0,
   "depuis": 2006,
   "photo": "/img/lieux/jardin-anne-frank.jpg"
  },
  {
   "slug": "piscine-chateau-landon",
   "name": "Piscine Château-Landon",
   "kind_fr": "Piscine",
   "famille": "sport",
   "arrondissement": 10,
   "lat": 48.883254,
   "lon": 2.363742,
   "n_lieu": 1,
   "n_moments": 1,
   "argent_total_eur": 11396914,
   "depense_reelle_eur": 1720640,
   "engage_eur": 9676275,
   "depuis": 2000,
   "photo": "/img/lieux/piscine-chateau-landon.jpg"
  },
  {
   "slug": "piscine-de-la-cour-des-lions",
   "name": "Piscine de la Cour des Lions",
   "kind_fr": "Piscine",
   "famille": "sport",
   "arrondissement": 11,
   "lat": 48.890099,
   "lon": 2.392991,
   "n_lieu": 1,
   "n_moments": 1,
   "argent_total_eur": 0,
   "depense_reelle_eur": 0,
   "engage_eur": 0,
   "depuis": 2000,
   "photo": null
  },
  {
   "slug": "piscine-roger-le-gall",
   "name": "Piscine Roger-Le-Gall",
   "kind_fr": "Piscine",
   "famille": "sport",
   "arrondissement": 12,
   "lat": 48.841792,
   "lon": 2.412495,
   "n_lieu": 2,
   "n_moments": 2,
   "argent_total_eur": 14300533,
   "depense_reelle_eur": 2110412,
   "engage_eur": 12190121,
   "depuis": 2001,
   "photo": "/img/lieux/piscine-roger-le-gall.jpg"
  },
  {
   "slug": "piscine-du-chateau-des-rentiers",
   "name": "Piscine du Château des Rentiers",
   "kind_fr": "Piscine",
   "famille": "sport",
   "arrondissement": 13,
   "lat": 48.827556,
   "lon": 2.366605,
   "n_lieu": 1,
   "n_moments": 1,
   "argent_total_eur": 0,
   "depense_reelle_eur": 0,
   "engage_eur": 0,
   "depuis": 2004,
   "photo": null
  },
  {
   "slug": "piscine-dunois",
   "name": "Piscine Dunois",
   "kind_fr": "Piscine",
   "famille": "sport",
   "arrondissement": 13,
   "lat": 48.831667,
   "lon": 2.368401,
   "n_lieu": 2,
   "n_moments": 2,
   "argent_total_eur": 564996,
   "depense_reelle_eur": 0,
   "engage_eur": 564996,
   "depuis": 2002,
   "photo": null
  },
  {
   "slug": "piscine-aspirant-dunand",
   "name": "Piscine Aspirant-Dunand",
   "kind_fr": "Piscine",
   "famille": "sport",
   "arrondissement": 14,
   "lat": 48.822832,
   "lon": 2.364085,
   "n_lieu": 2,
   "n_moments": 2,
   "argent_total_eur": 128736,
   "depense_reelle_eur": 0,
   "engage_eur": 128736,
   "depuis": 2002,
   "photo": null
  },
  {
   "slug": "piscine-didot",
   "name": "Piscine Didot",
   "kind_fr": "Piscine",
   "famille": "sport",
   "arrondissement": 14,
   "lat": 48.830064,
   "lon": 2.317899,
   "n_lieu": 1,
   "n_moments": 1,
   "argent_total_eur": 480205,
   "depense_reelle_eur": 0,
   "engage_eur": 480205,
   "depuis": 2022,
   "photo": null
  },
  {
   "slug": "piscine-armand-massard",
   "name": "Piscine Armand-Massard",
   "kind_fr": "Piscine",
   "famille": "sport",
   "arrondissement": 15,
   "lat": 48.888209,
   "lon": 2.296713,
   "n_lieu": 1,
   "n_moments": 1,
   "argent_total_eur": 96489,
   "depense_reelle_eur": 0,
   "engage_eur": 96489,
   "depuis": 2002,
   "photo": null
  },
  {
   "slug": "piscine-blomet",
   "name": "Piscine Blomet",
   "kind_fr": "Piscine",
   "famille": "sport",
   "arrondissement": 15,
   "lat": 48.841024,
   "lon": 2.301268,
   "n_lieu": 3,
   "n_moments": 3,
   "argent_total_eur": 179013,
   "depense_reelle_eur": 113733,
   "engage_eur": 65280,
   "depuis": 1996,
   "photo": "/img/lieux/piscine-blomet.jpg"
  },
  {
   "slug": "piscine-emile-anthoine",
   "name": "Piscine Émile-Anthoine",
   "kind_fr": "Piscine",
   "famille": "sport",
   "arrondissement": 15,
   "lat": 48.892962,
   "lon": 2.35154,
   "n_lieu": 2,
   "n_moments": 2,
   "argent_total_eur": 1134366,
   "depense_reelle_eur": 0,
   "engage_eur": 1134366,
   "depuis": 1998,
   "photo": null
  },
  {
   "slug": "piscine-keller",
   "name": "Piscine Keller",
   "kind_fr": "Piscine",
   "famille": "sport",
   "arrondissement": 15,
   "lat": 48.854624,
   "lon": 2.375991,
   "n_lieu": 23,
   "n_moments": 8,
   "argent_total_eur": 21242797,
   "depense_reelle_eur": 143052,
   "engage_eur": 21099745,
   "depuis": 2000,
   "photo": "/img/lieux/piscine-keller.jpg"
  },
  {
   "slug": "piscine-la-plaine",
   "name": "Piscine La Plaine",
   "kind_fr": "Piscine",
   "famille": "sport",
   "arrondissement": 15,
   "lat": 48.850114,
   "lon": 2.403267,
   "n_lieu": 1,
   "n_moments": 1,
   "argent_total_eur": 246389,
   "depense_reelle_eur": 0,
   "engage_eur": 246389,
   "depuis": 2022,
   "photo": null
  },
  {
   "slug": "piscine-rene-et-andre-mourlon",
   "name": "Piscine René-et-André-Mourlon",
   "kind_fr": "Piscine",
   "famille": "sport",
   "arrondissement": 15,
   "lat": 48.899342,
   "lon": 2.340003,
   "n_lieu": 1,
   "n_moments": 1,
   "argent_total_eur": 0,
   "depense_reelle_eur": 0,
   "engage_eur": 0,
   "depuis": 2001,
   "photo": null
  },
  {
   "slug": "piscine-d-auteuil",
   "name": "Piscine d'Auteuil",
   "kind_fr": "Piscine",
   "famille": "sport",
   "arrondissement": 16,
   "lat": 48.847744,
   "lon": 2.264724,
   "n_lieu": 3,
   "n_moments": 3,
   "argent_total_eur": 910334,
   "depense_reelle_eur": 0,
   "engage_eur": 910334,
   "depuis": 1996,
   "photo": "/img/lieux/piscine-d-auteuil.jpg"
  },
  {
   "slug": "piscine-henry-de-montherlant",
   "name": "Piscine Henry-de-Montherlant",
   "kind_fr": "Piscine",
   "famille": "sport",
   "arrondissement": 16,
   "lat": 48.860262,
   "lon": 2.326601,
   "n_lieu": 5,
   "n_moments": 5,
   "argent_total_eur": 134517,
   "depense_reelle_eur": 0,
   "engage_eur": 134517,
   "depuis": 1998,
   "photo": "/img/lieux/piscine-henry-de-montherlant.jpg"
  },
  {
   "slug": "piscine-bernard-lafay",
   "name": "Piscine Bernard-Lafay",
   "kind_fr": "Piscine",
   "famille": "sport",
   "arrondissement": 17,
   "lat": 48.85317,
   "lon": 2.331623,
   "n_lieu": 3,
   "n_moments": 2,
   "argent_total_eur": 1613643,
   "depense_reelle_eur": 1338854,
   "engage_eur": 274789,
   "depuis": 2002,
   "photo": "/img/lieux/piscine-bernard-lafay.jpg"
  },
  {
   "slug": "piscine-bertrand-dauvin",
   "name": "Piscine Bertrand-Dauvin",
   "kind_fr": "Piscine",
   "famille": "sport",
   "arrondissement": 18,
   "lat": 48.864229,
   "lon": 2.382149,
   "n_lieu": 1,
   "n_moments": 1,
   "argent_total_eur": 509872,
   "depense_reelle_eur": 0,
   "engage_eur": 509872,
   "depuis": 1996,
   "photo": null
  },
  {
   "slug": "piscine-mathis",
   "name": "Piscine Mathis",
   "kind_fr": "Piscine",
   "famille": "sport",
   "arrondissement": 19,
   "lat": 48.890926,
   "lon": 2.374429,
   "n_lieu": 3,
   "n_moments": 3,
   "argent_total_eur": 285985,
   "depense_reelle_eur": 120584,
   "engage_eur": 165401,
   "depuis": 2005,
   "photo": null
  },
  {
   "slug": "piscine-rouvet",
   "name": "Piscine Rouvet",
   "kind_fr": "Piscine",
   "famille": "sport",
   "arrondissement": 19,
   "lat": 48.893986,
   "lon": 2.383671,
   "n_lieu": 2,
   "n_moments": 2,
   "argent_total_eur": 0,
   "depense_reelle_eur": 0,
   "engage_eur": 0,
   "depuis": 2003,
   "photo": null
  },
  {
   "slug": "cimetiere-d-auteuil",
   "name": "Cimetière d'Auteuil",
   "kind_fr": "Cimetière",
   "famille": "vert",
   "arrondissement": 16,
   "lat": 48.847744,
   "lon": 2.264724,
   "n_lieu": 1,
   "n_moments": 1,
   "argent_total_eur": 0,
   "depense_reelle_eur": 0,
   "engage_eur": 0,
   "depuis": 2008,
   "photo": "/img/lieux/cimetiere-d-auteuil.jpg"
  },
  {
   "slug": "cimetiere-du-calvaire",
   "name": "Cimetière du Calvaire",
   "kind_fr": "Cimetière",
   "famille": "vert",
   "arrondissement": 18,
   "lat": 48.886234,
   "lon": 2.340523,
   "n_lieu": 0,
   "n_moments": 1,
   "argent_total_eur": 0,
   "depense_reelle_eur": 0,
   "engage_eur": 0,
   "depuis": 1995,
   "photo": "/img/lieux/cimetiere-du-calvaire.jpg"
  },
  {
   "slug": "cimetiere-de-charonne",
   "name": "Cimetière de Charonne",
   "kind_fr": "Cimetière",
   "famille": "vert",
   "arrondissement": 20,
   "lat": 48.854371,
   "lon": 2.38358,
   "n_lieu": 2,
   "n_moments": 2,
   "argent_total_eur": 0,
   "depense_reelle_eur": 0,
   "engage_eur": 0,
   "depuis": 2007,
   "photo": "/img/lieux/cimetiere-de-charonne.jpg"
  },
  {
   "slug": "cimetiere-saint-vincent",
   "name": "Cimetière Saint-Vincent",
   "kind_fr": "Cimetière",
   "famille": "vert",
   "arrondissement": 18,
   "lat": 48.888964,
   "lon": 2.339222,
   "n_lieu": null,
   "n_moments": 0,
   "argent_total_eur": 594893,
   "depense_reelle_eur": 0,
   "engage_eur": 594893,
   "depuis": 1995,
   "photo": "/img/lieux/cimetiere-saint-vincent.jpg"
  },
  {
   "slug": "parc-aretha-franklin",
   "name": "Parc Aretha-Franklin",
   "kind_fr": "Parc",
   "famille": "vert",
   "arrondissement": 20,
   "lat": 48.861715,
   "lon": 2.411799,
   "n_lieu": null,
   "n_moments": 0,
   "argent_total_eur": 0,
   "depense_reelle_eur": 0,
   "engage_eur": 0,
   "depuis": 1995,
   "photo": "/img/lieux/parc-aretha-franklin.jpg"
  },
  {
   "slug": "parc-chapelle-charbon",
   "name": "Parc Chapelle-Charbon",
   "kind_fr": "Parc",
   "famille": "vert",
   "arrondissement": 18,
   "lat": 48.861094,
   "lon": 2.40379,
   "n_lieu": null,
   "n_moments": 0,
   "argent_total_eur": 13589814,
   "depense_reelle_eur": 0,
   "engage_eur": 13589814,
   "depuis": 1995,
   "photo": "/img/lieux/parc-chapelle-charbon.jpg"
  },
  {
   "slug": "parc-de-choisy",
   "name": "Parc de Choisy",
   "kind_fr": "Parc",
   "famille": "vert",
   "arrondissement": 13,
   "lat": 48.825771,
   "lon": 2.359572,
   "n_lieu": 5,
   "n_moments": 5,
   "argent_total_eur": 1476621,
   "depense_reelle_eur": 130317,
   "engage_eur": 1346304,
   "depuis": 2005,
   "photo": "/img/lieux/parc-de-choisy.jpg"
  },
  {
   "slug": "parc-kellermann",
   "name": "Parc Kellermann",
   "kind_fr": "Parc",
   "famille": "vert",
   "arrondissement": 13,
   "lat": 48.820195,
   "lon": 2.351967,
   "n_lieu": 2,
   "n_moments": 2,
   "argent_total_eur": 178835,
   "depense_reelle_eur": 0,
   "engage_eur": 178835,
   "depuis": 2002,
   "photo": "/img/lieux/parc-kellermann.jpg"
  },
  {
   "slug": "marche-grenelle",
   "name": "Marché Grenelle",
   "kind_fr": "Marché",
   "famille": "services",
   "arrondissement": 15,
   "lat": 48.856278,
   "lon": 2.317069,
   "n_lieu": null,
   "n_moments": 0,
   "argent_total_eur": 0,
   "depense_reelle_eur": 0,
   "engage_eur": 0,
   "depuis": 1995,
   "photo": "/img/lieux/marche-grenelle.jpg"
  },
  {
   "slug": "mairie-du-1er",
   "name": "Mairie du 1er",
   "kind_fr": "Mairie",
   "famille": "services",
   "arrondissement": 1,
   "lat": 48.8605,
   "lon": 2.3396,
   "n_lieu": null,
   "n_moments": 0,
   "argent_total_eur": 766313,
   "depense_reelle_eur": 0,
   "engage_eur": 766313,
   "depuis": 1995,
   "photo": "/img/lieux/mairie-du-1er.jpg"
  },
  {
   "slug": "mairie-du-2e",
   "name": "Mairie du 2e",
   "kind_fr": "Mairie",
   "famille": "services",
   "arrondissement": 2,
   "lat": 48.8676,
   "lon": 2.3423,
   "n_lieu": null,
   "n_moments": 0,
   "argent_total_eur": 57929,
   "depense_reelle_eur": 0,
   "engage_eur": 57929,
   "depuis": 1995,
   "photo": null
  },
  {
   "slug": "mairie-du-3e",
   "name": "Mairie du 3e",
   "kind_fr": "Mairie",
   "famille": "services",
   "arrondissement": 3,
   "lat": 48.8626,
   "lon": 2.3616,
   "n_lieu": null,
   "n_moments": 0,
   "argent_total_eur": 1035793,
   "depense_reelle_eur": 0,
   "engage_eur": 1035793,
   "depuis": 1995,
   "photo": null
  },
  {
   "slug": "mairie-du-4e",
   "name": "Mairie du 4e",
   "kind_fr": "Mairie",
   "famille": "services",
   "arrondissement": 4,
   "lat": 48.8558,
   "lon": 2.3576,
   "n_lieu": null,
   "n_moments": 0,
   "argent_total_eur": 1482996,
   "depense_reelle_eur": 0,
   "engage_eur": 1482996,
   "depuis": 1995,
   "photo": null
  },
  {
   "slug": "mairie-du-6e",
   "name": "Mairie du 6e",
   "kind_fr": "Mairie",
   "famille": "services",
   "arrondissement": 6,
   "lat": 48.8514,
   "lon": 2.3336,
   "n_lieu": null,
   "n_moments": 0,
   "argent_total_eur": 983774,
   "depense_reelle_eur": 40008,
   "engage_eur": 943766,
   "depuis": 1995,
   "photo": null
  },
  {
   "slug": "mairie-du-7e",
   "name": "Mairie du 7e",
   "kind_fr": "Mairie",
   "famille": "services",
   "arrondissement": 7,
   "lat": 48.8558,
   "lon": 2.3129,
   "n_lieu": null,
   "n_moments": 0,
   "argent_total_eur": 577097,
   "depense_reelle_eur": 0,
   "engage_eur": 577097,
   "depuis": 1995,
   "photo": null
  },
  {
   "slug": "mairie-du-8e",
   "name": "Mairie du 8e",
   "kind_fr": "Mairie",
   "famille": "services",
   "arrondissement": 8,
   "lat": 48.8722,
   "lon": 2.3161,
   "n_lieu": null,
   "n_moments": 0,
   "argent_total_eur": 1297942,
   "depense_reelle_eur": 316280,
   "engage_eur": 981662,
   "depuis": 1995,
   "photo": null
  },
  {
   "slug": "mairie-du-9e",
   "name": "Mairie du 9e",
   "kind_fr": "Mairie",
   "famille": "services",
   "arrondissement": 9,
   "lat": 48.8763,
   "lon": 2.3376,
   "n_lieu": null,
   "n_moments": 0,
   "argent_total_eur": 236275,
   "depense_reelle_eur": 203275,
   "engage_eur": 33000,
   "depuis": 1995,
   "photo": null
  },
  {
   "slug": "mairie-du-10e",
   "name": "Mairie du 10e",
   "kind_fr": "Mairie",
   "famille": "services",
   "arrondissement": 10,
   "lat": 48.876,
   "lon": 2.36,
   "n_lieu": null,
   "n_moments": 0,
   "argent_total_eur": 2809240,
   "depense_reelle_eur": 2660990,
   "engage_eur": 148250,
   "depuis": 1995,
   "photo": "/img/lieux/mairie-du-10e.jpg"
  },
  {
   "slug": "mairie-du-12e",
   "name": "Mairie du 12e",
   "kind_fr": "Mairie",
   "famille": "services",
   "arrondissement": 12,
   "lat": 48.8412,
   "lon": 2.3877,
   "n_lieu": 12,
   "n_moments": 7,
   "argent_total_eur": 1557973,
   "depense_reelle_eur": 712157,
   "engage_eur": 845816,
   "depuis": 1998,
   "photo": "/img/lieux/mairie-du-12e.jpg"
  },
  {
   "slug": "mairie-du-13e",
   "name": "Mairie du 13e",
   "kind_fr": "Mairie",
   "famille": "services",
   "arrondissement": 13,
   "lat": 48.8283,
   "lon": 2.3556,
   "n_lieu": null,
   "n_moments": 0,
   "argent_total_eur": 7234310,
   "depense_reelle_eur": 5018813,
   "engage_eur": 2215498,
   "depuis": 1995,
   "photo": "/img/lieux/mairie-du-13e.jpg"
  },
  {
   "slug": "mairie-du-14e",
   "name": "Mairie du 14e",
   "kind_fr": "Mairie",
   "famille": "services",
   "arrondissement": 14,
   "lat": 48.8332,
   "lon": 2.3255,
   "n_lieu": null,
   "n_moments": 0,
   "argent_total_eur": 755337,
   "depense_reelle_eur": 319645,
   "engage_eur": 435692,
   "depuis": 1995,
   "photo": "/img/lieux/mairie-du-14e.jpg"
  },
  {
   "slug": "mairie-du-15e",
   "name": "Mairie du 15e",
   "kind_fr": "Mairie",
   "famille": "services",
   "arrondissement": 15,
   "lat": 48.8412,
   "lon": 2.2999,
   "n_lieu": null,
   "n_moments": 0,
   "argent_total_eur": 1093492,
   "depense_reelle_eur": 221660,
   "engage_eur": 871833,
   "depuis": 1995,
   "photo": "/img/lieux/mairie-du-15e.jpg"
  },
  {
   "slug": "mairie-du-16e",
   "name": "Mairie du 16e",
   "kind_fr": "Mairie",
   "famille": "services",
   "arrondissement": 16,
   "lat": 48.8637,
   "lon": 2.2769,
   "n_lieu": null,
   "n_moments": 0,
   "argent_total_eur": 1046856,
   "depense_reelle_eur": 157267,
   "engage_eur": 889589,
   "depuis": 1995,
   "photo": "/img/lieux/mairie-du-16e.jpg"
  },
  {
   "slug": "mairie-du-17e",
   "name": "Mairie du 17e",
   "kind_fr": "Mairie",
   "famille": "services",
   "arrondissement": 17,
   "lat": 48.8874,
   "lon": 2.3079,
   "n_lieu": null,
   "n_moments": 0,
   "argent_total_eur": 5871381,
   "depense_reelle_eur": 4532166,
   "engage_eur": 1339214,
   "depuis": 1995,
   "photo": "/img/lieux/mairie-du-17e.jpg"
  },
  {
   "slug": "mairie-du-19e",
   "name": "Mairie du 19e",
   "kind_fr": "Mairie",
   "famille": "services",
   "arrondissement": 19,
   "lat": 48.8836,
   "lon": 2.3831,
   "n_lieu": null,
   "n_moments": 0,
   "argent_total_eur": 165665,
   "depense_reelle_eur": 76395,
   "engage_eur": 89270,
   "depuis": 1995,
   "photo": "/img/lieux/mairie-du-19e.jpg"
  }
 ]
}