{
  "year": 2018,
  "total": 214610636,
  "count": 449,
  "geolocated": 445,
  "data": [
    {
      "id": "2018_08074",
      "annee": 2018,
      "beneficiaire": "ASSOCIATION D'ACTION SOCIALE EN FAVEUR DES PERSONNELS DE LA VILLE DE PARIS ET DU DÉPARTEMENT DE PARIS",
      "siret": "32385721900097",
      "objet": "Fonctionnement Ville",
      "montant": 11566305,
      "direction": "DRH",
      "nature": "Fonctionnement",
      "coordinates": {
        "lat": 48.87074,
        "lon": 2.343155
      },
      "adresse": "21 RUE D'UZES 75002 PARIS",
      "codePostal": "75002",
      "commune": "PARIS"
    },
    {
      "id": "2018_03437",
      "annee": 2018,
      "beneficiaire": "THEATRE MUSICAL DE PARIS",
      "siret": "31669616000019",
      "objet": "acompte 2018-dac",
      "montant": 6000000,
      "direction": "DAC",
      "nature": "Fonctionnement",
      "coordinates": {
        "lat": 48.857845,
        "lon": 2.345636
      },
      "adresse": "2 RUE EDOUARD COLONNE 75001 PARIS",
      "codePostal": "75001",
      "commune": "PARIS"
    },
    {
      "id": "2018_03632",
      "annee": 2018,
      "beneficiaire": "THEATRE MUSICAL DE PARIS",
      "siret": "31669616000019",
      "objet": "Théâtre du Châtelet - subvention de fonctionnement 2018",
      "montant": 6000000,
      "direction": "DAC",
      "nature": "Fonctionnement",
      "coordinates": {
        "lat": 48.857845,
        "lon": 2.345636
      },
      "adresse": "2 RUE EDOUARD COLONNE 75001 PARIS",
      "codePostal": "75001",
      "commune": "PARIS"
    },
    {
      "id": "2018_03247",
      "annee": 2018,
      "beneficiaire": "ASSOCIATION DU THÉÂTRE DE LA VILLE",
      "siret": "77566172100024",
      "objet": "Subvention de fonctionnement 2018",
      "montant": 5950000,
      "direction": "DAC",
      "nature": "Fonctionnement",
      "coordinates": {
        "lat": 48.857346,
        "lon": 2.34779
      },
      "adresse": "ANGL 16 Q DE GESVRES 2 PLACE DU CHATELET 75004 PARIS",
      "codePostal": "75004",
      "commune": "PARIS"
    },
    {
      "id": "2018_08072",
      "annee": 2018,
      "beneficiaire": "ASSOCIATION POUR LA GESTION DES OEUVRES SOCIALES DU PERSONNEL DES ADMINISTRATIONS PARISIENNES",
      "siret": "32385717700279",
      "objet": "Fonctionnement Ville",
      "montant": 5731198,
      "direction": "DRH",
      "nature": "Fonctionnement",
      "coordinates": {
        "lat": 48.895862,
        "lon": 2.38219
      },
      "adresse": "32 RUE DE CAMBRAI 75019 PARIS",
      "codePostal": "75019",
      "commune": "PARIS"
    },
    {
      "id": "2018_03249",
      "annee": 2018,
      "beneficiaire": "ASSOCIATION DU THÉÂTRE DE LA VILLE",
      "siret": "77566172100024",
      "objet": "acompte 2018",
      "montant": 5450000,
      "direction": "DAC",
      "nature": "Fonctionnement",
      "coordinates": {
        "lat": 48.857346,
        "lon": 2.34779
      },
      "adresse": "ANGL 16 Q DE GESVRES 2 PLACE DU CHATELET 75004 PARIS",
      "codePostal": "75004",
      "commune": "PARIS"
    },
    {
      "id": "2018_02844",
      "annee": 2018,
      "beneficiaire": "OFFICE DU TOURISME ET DES CONGRÈS DE PARIS",
      "siret": "77567137300154",
      "objet": "subvention de fonctionnement de l'Office du Tourisme et des congrès de Paris",
      "montant": 5240000,
      "direction": "DAE",
      "nature": "Fonctionnement",
      "coordinates": {
        "lat": 48.863979,
        "lon": 2.355134
      },
      "adresse": "76 RUE BEAUBOURG 75003 PARIS",
      "codePostal": "75003",
      "commune": "PARIS"
    },
    {
      "id": "2018_00255",
      "annee": 2018,
      "beneficiaire": "ATELIER PARISIEN D'URBANISME",
      "siret": "78423753900043",
      "objet": "Subvention partenariale 2018 Ville de ParisBudget en fonctionnement",
      "montant": 5220000,
      "direction": "DU",
      "nature": "Fonctionnement",
      "coordinates": {
        "lat": 48.825563,
        "lon": 2.38353
      },
      "adresse": "5EME ETAGE 15 RUE JEAN-BAPTISTE BERLIER 75013 PARIS",
      "codePostal": "75013",
      "commune": "PARIS"
    },
    {
      "id": "2018_07396",
      "annee": 2018,
      "beneficiaire": "FORUM DES IMAGES",
      "siret": "33212365200023",
      "objet": "Subvention annuelle de fonctionnement",
      "montant": 3700000,
      "direction": "DAE",
      "nature": "Fonctionnement",
      "coordinates": {
        "lat": 48.86196,
        "lon": 2.346687
      },
      "adresse": "FORUM DES HALLES PORTE SAINT-EUSTACHE 75001 PARIS",
      "codePostal": "75001",
      "commune": "PARIS"
    },
    {
      "id": "2018_00316",
      "annee": 2018,
      "beneficiaire": "MISSION LOCALE DE PARIS",
      "siret": "53132862300073",
      "objet": "Fonctionnement",
      "montant": 3270000,
      "direction": "DAE",
      "nature": "Fonctionnement",
      "coordinates": {
        "lat": 48.889595,
        "lon": 2.363068
      },
      "adresse": "22 RUE PAJOL 75018 PARIS",
      "codePostal": "75018",
      "commune": "PARIS"
    },
    {
      "id": "2018_03753",
      "annee": 2018,
      "beneficiaire": "ORCHESTRE DE PARIS",
      "siret": "77567064900067",
      "objet": "Saison 2018 de l'Orchestre de Paris, concerts à la Philharmonie notamment",
      "montant": 2726600,
      "direction": "DAC",
      "nature": "Fonctionnement",
      "coordinates": {
        "lat": 48.892099,
        "lon": 2.394786
      },
      "adresse": "191 BOULEVARD SERURIER 75019 PARIS",
      "codePostal": "75019",
      "commune": "PARIS"
    },
    {
      "id": "2018_03384",
      "annee": 2018,
      "beneficiaire": "ORCHESTRE DE PARIS",
      "siret": "77567064900067",
      "objet": "acompte 2018-dac",
      "montant": 2726600,
      "direction": "DAC",
      "nature": "Fonctionnement",
      "coordinates": {
        "lat": 48.892099,
        "lon": 2.394786
      },
      "adresse": "191 BOULEVARD SERURIER 75019 PARIS",
      "codePostal": "75019",
      "commune": "PARIS"
    },
    {
      "id": "2018_03331",
      "annee": 2018,
      "beneficiaire": "FORUM DES IMAGES",
      "siret": "33212365200023",
      "objet": "Acompte 2018 - DAC",
      "montant": 2680000,
      "direction": "DAC",
      "nature": "Fonctionnement",
      "coordinates": {
        "lat": 48.86196,
        "lon": 2.346687
      },
      "adresse": "FORUM DES HALLES PORTE SAINT-EUSTACHE 75001 PARIS",
      "codePostal": "75001",
      "commune": "PARIS"
    },
    {
      "id": "2018_02231",
      "annee": 2018,
      "beneficiaire": "PARIS ET COMPAGNIE",
      "siret": "40895436000033",
      "objet": "Paris&Co 2018",
      "montant": 2395000,
      "direction": "DAE",
      "nature": "Fonctionnement",
      "coordinates": {
        "lat": 48.894069,
        "lon": 2.35423
      },
      "adresse": "48 RUE RENE CLAIR 75018 PARIS",
      "codePostal": "75018",
      "commune": "PARIS"
    },
    {
      "id": "2018_00381",
      "annee": 2018,
      "beneficiaire": "PAVILLON DE L'ARSENAL - CENTRE D'INFORMATION, DE DOCUMENTATION ET D'EXPOSITIONS D'URBANISME ET D'ARCHITECTURE DE PARIS ET DE LA MÉTROPOLE PARISIENNE",
      "siret": "34462055400016",
      "objet": "subvention d'équilibre 2018",
      "montant": 2388000,
      "direction": "DU",
      "nature": "Fonctionnement",
      "coordinates": {
        "lat": 48.850688,
        "lon": 2.362387
      },
      "adresse": "21 BOULEVARD MORLAND 75004 PARIS",
      "codePostal": "75004",
      "commune": "PARIS"
    },
    {
      "id": "2018_03608",
      "annee": 2018,
      "beneficiaire": "ORCHESTRE DE CHAMBRE DE PARIS",
      "siret": "31390568900078",
      "objet": "Subvention de fonctionnement (complément de prix) 2018",
      "montant": 2290000,
      "direction": "DAC",
      "nature": "Fonctionnement",
      "coordinates": {
        "lat": 48.889311,
        "lon": 2.393824
      },
      "adresse": "221 AVENUE JEAN JAURES 75019 PARIS",
      "codePostal": "75019",
      "commune": "PARIS"
    },
    {
      "id": "2018_03380",
      "annee": 2018,
      "beneficiaire": "ORCHESTRE DE CHAMBRE DE PARIS",
      "siret": "31390568900078",
      "objet": "acompte 2018-dac",
      "montant": 2290000,
      "direction": "DAC",
      "nature": "Fonctionnement",
      "coordinates": {
        "lat": 48.889311,
        "lon": 2.393824
      },
      "adresse": "221 AVENUE JEAN JAURES 75019 PARIS",
      "codePostal": "75019",
      "commune": "PARIS"
    },
    {
      "id": "2018_00147",
      "annee": 2018,
      "beneficiaire": "ABC PUÉRICULTURE",
      "siret": "34482479200032",
      "objet": "Investissement Projet St Antoine",
      "montant": 2257200,
      "direction": "DFPE",
      "nature": "Investissement",
      "coordinates": {
        "lat": 48.852284,
        "lon": 2.274995
      },
      "adresse": "9 RUE JEAN DE LA FONTAINE 75016 PARIS",
      "codePostal": "75016",
      "commune": "PARIS"
    },
    {
      "id": "2018_07414",
      "annee": 2018,
      "beneficiaire": "FORUM DES IMAGES",
      "siret": "33212365200023",
      "objet": "SUBVENTION D'INVESTISSEMENT 2018 DU FORUM DES IMAGES",
      "montant": 2134944,
      "direction": "DAE",
      "nature": "Investissement",
      "coordinates": {
        "lat": 48.86196,
        "lon": 2.346687
      },
      "adresse": "FORUM DES HALLES PORTE SAINT-EUSTACHE 75001 PARIS",
      "codePostal": "75001",
      "commune": "PARIS"
    },
    {
      "id": "2018_08076",
      "annee": 2018,
      "beneficiaire": "ASSOCIATION D'ACTION SOCIALE EN FAVEUR DES PERSONNELS DE LA VILLE DE PARIS ET DU DÉPARTEMENT DE PARIS",
      "siret": "32385721900097",
      "objet": "Investissement Ville",
      "montant": 1850000,
      "direction": "DRH",
      "nature": "Investissement",
      "coordinates": {
        "lat": 48.87074,
        "lon": 2.343155
      },
      "adresse": "21 RUE D'UZES 75002 PARIS",
      "codePostal": "75002",
      "commune": "PARIS"
    },
    {
      "id": "2018_03844",
      "annee": 2018,
      "beneficiaire": "PARIS ATELIERS",
      "siret": "31293687500078",
      "objet": "fonctionnement",
      "montant": 1845000,
      "direction": "DAC",
      "nature": "Fonctionnement",
      "coordinates": {
        "lat": 48.850017,
        "lon": 2.369748
      },
      "adresse": "7 RUE BISCORNET 75012 PARIS",
      "codePostal": "75012",
      "commune": "PARIS"
    },
    {
      "id": "2018_00150",
      "annee": 2018,
      "beneficiaire": "SOCIÉTÉ DE RETRAITE DES CONSEILLERS MUNICIPAUX DE PARIS ET DES CONSEILLERS GÉNÉRAUX DE LA SEINE",
      "siret": "53067796200017",
      "objet": "Subvention Sté de Retraite des conseillers municipaux de Paris/ conseillers généraux de de la Seine.",
      "montant": 1820000,
      "direction": "DDCT",
      "nature": "Fonctionnement",
      "coordinates": {
        "lat": 48.856586,
        "lon": 2.353225
      },
      "adresse": "PLACE DE L' HOTEL DE VILLE 5 RUE DE LOBAU 75004 PARIS",
      "codePostal": "75004",
      "commune": "PARIS"
    },
    {
      "id": "2018_00148",
      "annee": 2018,
      "beneficiaire": "ABC PUÉRICULTURE",
      "siret": "34482479200032",
      "objet": "Investissement Projet Sedaine",
      "montant": 1800000,
      "direction": "DFPE",
      "nature": "Investissement",
      "coordinates": {
        "lat": 48.852284,
        "lon": 2.274995
      },
      "adresse": "9 RUE JEAN DE LA FONTAINE 75016 PARIS",
      "codePostal": "75016",
      "commune": "PARIS"
    },
    {
      "id": "2018_03391",
      "annee": 2018,
      "beneficiaire": "PARIS ATELIERS",
      "siret": "31293687500078",
      "objet": "acompte 2018 - DAC",
      "montant": 1795000,
      "direction": "DAC",
      "nature": "Fonctionnement",
      "coordinates": {
        "lat": 48.850017,
        "lon": 2.369748
      },
      "adresse": "7 RUE BISCORNET 75012 PARIS",
      "codePostal": "75012",
      "commune": "PARIS"
    },
    {
      "id": "2018_00546",
      "annee": 2018,
      "beneficiaire": "FONDATION OEUVRE DE LA CROIX SAINT-SIMON",
      "siret": "78480968300013",
      "objet": "Création d'un multi-accueil de 75 places3 rue Sainte-Félicité75015 Paris",
      "montant": 1747491,
      "direction": "DFPE",
      "nature": "Investissement",
      "coordinates": {
        "lat": 48.878208,
        "lon": 2.382497
      },
      "adresse": "35 RUE DU PLATEAU 75019 PARIS",
      "codePostal": "75019",
      "commune": "PARIS"
    },
    {
      "id": "2018_05746",
      "annee": 2018,
      "beneficiaire": "PARIS AUDIOVISUEL - MAISON EUROPÉENNE DE LA PHOTOGRAPHIE",
      "siret": "31373068100043",
      "objet": "Subvention annuelle de fonctionnement",
      "montant": 1737745,
      "direction": "DAC",
      "nature": "Fonctionnement",
      "coordinates": {
        "lat": 48.854893,
        "lon": 2.359078
      },
      "adresse": "5 RUE DE FOURCY 75004 PARIS",
      "codePostal": "75004",
      "commune": "PARIS"
    },
    {
      "id": "2018_03393",
      "annee": 2018,
      "beneficiaire": "PARIS AUDIOVISUEL - MAISON EUROPÉENNE DE LA PHOTOGRAPHIE",
      "siret": "31373068100043",
      "objet": "acompte 2018 - DAC",
      "montant": 1737745,
      "direction": "DAC",
      "nature": "Fonctionnement",
      "coordinates": {
        "lat": 48.854893,
        "lon": 2.359078
      },
      "adresse": "5 RUE DE FOURCY 75004 PARIS",
      "codePostal": "75004",
      "commune": "PARIS"
    },
    {
      "id": "2018_03076",
      "annee": 2018,
      "beneficiaire": "ASSOCIATION POUR LE SOUTIEN DU THÉÂTRE PRIVÉ",
      "siret": "78439642600032",
      "objet": "Fonctionnement et activités de l'Association pour l'année 2018",
      "montant": 1661500,
      "direction": "DAC",
      "nature": "Fonctionnement",
      "coordinates": {
        "lat": 48.875465,
        "lon": 2.316343
      },
      "adresse": "48 RUE DE LABORDE 75008 PARIS",
      "codePostal": "75008",
      "commune": "PARIS"
    },
    {
      "id": "2018_04324",
      "annee": 2018,
      "beneficiaire": "ASSOCIATION INTERNATIONALE DES MAIRES ET RESPONSABLES DES CAPITALES ET MÉTROPOLES PARTIELLEMENT OU ENTIÈREMENT FRANCOPHONES",
      "siret": "31935615000031",
      "objet": "Subvention 2018",
      "montant": 1633000,
      "direction": "DGRI",
      "nature": "Fonctionnement"
    },
    {
      "id": "2018_00149",
      "annee": 2018,
      "beneficiaire": "SOCIÉTÉ DE RETRAITE DES CONSEILLERS MUNICIPAUX DE PARIS",
      "siret": "42200633800012",
      "objet": "Subvention avec convention avec la société de retraite des conseillers municipaux de Paris (4e).",
      "montant": 1470000,
      "direction": "DDCT",
      "nature": "Fonctionnement",
      "coordinates": {
        "lat": 48.85663,
        "lon": 2.351459
      },
      "adresse": "PL HOTEL VILLE ESP LIBERATION 75004 PARIS 04",
      "codePostal": "75004",
      "commune": "PARIS 04"
    },
    {
      "id": "2018_03266",
      "annee": 2018,
      "beneficiaire": "ASSOCIATION POUR LE SOUTIEN DU THÉÂTRE PRIVÉ",
      "siret": "78439642600032",
      "objet": "acompte 2018-dac",
      "montant": 1461500,
      "direction": "DAC",
      "nature": "Fonctionnement",
      "coordinates": {
        "lat": 48.875465,
        "lon": 2.316343
      },
      "adresse": "48 RUE DE LABORDE 75008 PARIS",
      "codePostal": "75008",
      "commune": "PARIS"
    },
    {
      "id": "2018_08075",
      "annee": 2018,
      "beneficiaire": "ASSOCIATION D'ACTION SOCIALE EN FAVEUR DES PERSONNELS DE LA VILLE DE PARIS ET DU DÉPARTEMENT DE PARIS",
      "siret": "32385721900097",
      "objet": "Fonctionnement Département",
      "montant": 1285145,
      "direction": "DRH",
      "nature": "Fonctionnement",
      "coordinates": {
        "lat": 48.87074,
        "lon": 2.343155
      },
      "adresse": "21 RUE D'UZES 75002 PARIS",
      "codePostal": "75002",
      "commune": "PARIS"
    },
    {
      "id": "2018_00104",
      "annee": 2018,
      "beneficiaire": "ENSEMBLE PARIS EMPLOI COMPÉTENCES",
      "siret": "48338140600048",
      "objet": "Mise en oeuvre du Plan Local pour l'Insertion et l'Emploi de Paris et Animation de deux Points Paris",
      "montant": 1216000,
      "direction": "DAE",
      "nature": "Fonctionnement",
      "coordinates": {
        "lat": 48.885529,
        "lon": 2.390137
      },
      "adresse": "18 RUE GOUBET 75019 PARIS",
      "codePostal": "75019",
      "commune": "PARIS"
    },
    {
      "id": "2018_03377",
      "annee": 2018,
      "beneficiaire": "MUSÉE D'ART ET D'HISTOIRE DU JUDAÏSME",
      "siret": "34843510800017",
      "objet": "Acompte 2018 - DAC",
      "montant": 1069403,
      "direction": "DAC",
      "nature": "Fonctionnement",
      "coordinates": {
        "lat": 48.860956,
        "lon": 2.355617
      },
      "adresse": "HOTEL ST AIGNAN 71 RUE DU TEMPLE 75003 PARIS",
      "codePostal": "75003",
      "commune": "PARIS"
    },
    {
      "id": "2018_03806",
      "annee": 2018,
      "beneficiaire": "MUSÉE D'ART ET D'HISTOIRE DU JUDAÏSME",
      "siret": "34843510800017",
      "objet": "Subvention de fonctionnement du musée d'art et d'histoire du Judaïsme (mahJ) pour l'année 2018",
      "montant": 1069402,
      "direction": "DAC",
      "nature": "Fonctionnement",
      "coordinates": {
        "lat": 48.860956,
        "lon": 2.355617
      },
      "adresse": "HOTEL ST AIGNAN 71 RUE DU TEMPLE 75003 PARIS",
      "codePostal": "75003",
      "commune": "PARIS"
    },
    {
      "id": "2018_08073",
      "annee": 2018,
      "beneficiaire": "ASSOCIATION POUR LA GESTION DES OEUVRES SOCIALES DU PERSONNEL DES ADMINISTRATIONS PARISIENNES",
      "siret": "32385717700279",
      "objet": "Fonctionnement Département",
      "montant": 1011388,
      "direction": "DRH",
      "nature": "Fonctionnement",
      "coordinates": {
        "lat": 48.895862,
        "lon": 2.38219
      },
      "adresse": "32 RUE DE CAMBRAI 75019 PARIS",
      "codePostal": "75019",
      "commune": "PARIS"
    },
    {
      "id": "2018_08861",
      "annee": 2018,
      "beneficiaire": "COMITÉ LOCAL D'ORGANISATION DES COUPES DU MONDE FÉMININES FIFA 2018 ET 2019",
      "siret": "82346083700011",
      "objet": "Organisation des coupes du monde féminines FIFA 2018 et 2019",
      "montant": 1000000,
      "direction": "SG",
      "nature": "Fonctionnement",
      "coordinates": {
        "lat": 48.84998,
        "lon": 2.295732
      },
      "adresse": "87 BD DE GRENELLE 75015 PARIS 15",
      "codePostal": "75015",
      "commune": "PARIS 15"
    },
    {
      "id": "2018_00290",
      "annee": 2018,
      "beneficiaire": "SOLIHA PARIS.HAUTS DE SEINE.VAL D'OISE",
      "siret": "78433713100014",
      "objet": "Convention pluriannuelle d'objectifs entre la Ville de Paris et SOLIHA Paris.Hauts de Seine.Val d'Oi",
      "montant": 999000,
      "direction": "DLH",
      "nature": "Fonctionnement",
      "coordinates": {
        "lat": 48.872786,
        "lon": 2.326256
      },
      "adresse": "PACTE DE PARIS 29 RUE TRONCHET 75008 PARIS",
      "codePostal": "75008",
      "commune": "PARIS"
    },
    {
      "id": "2018_06331",
      "annee": 2018,
      "beneficiaire": "EMMAUS SOLIDARITE",
      "siret": "31723624800017",
      "objet": "Accueil de jour dans les Espaces Solidarité Familles (ESI)",
      "montant": 992666,
      "direction": "DASES",
      "nature": "Projet",
      "coordinates": {
        "lat": 48.860017,
        "lon": 2.345244
      },
      "adresse": "32 RUE DES BOURDONNAIS 75001 PARIS",
      "codePostal": "75001",
      "commune": "PARIS"
    },
    {
      "id": "2018_02651",
      "annee": 2018,
      "beneficiaire": "FONDATION OEUVRE DE LA CROIX SAINT-SIMON",
      "siret": "78480968300013",
      "objet": "CF Beaugrenelle 68 rue Saint Charles 15e",
      "montant": 928405,
      "direction": "DFPE",
      "nature": "Fonctionnement",
      "coordinates": {
        "lat": 48.878208,
        "lon": 2.382497
      },
      "adresse": "35 RUE DU PLATEAU 75019 PARIS",
      "codePostal": "75019",
      "commune": "PARIS"
    },
    {
      "id": "2018_03874",
      "annee": 2018,
      "beneficiaire": "LA MAISON DES BOUT'CHOU",
      "siret": "35118614300175",
      "objet": "La Maison Enchantée MA 39 bis, avenue René Coty Paris (14e)",
      "montant": 926482,
      "direction": "DFPE",
      "nature": "Fonctionnement",
      "coordinates": {
        "lat": 48.844295,
        "lon": 2.331113
      },
      "adresse": "12 RUE VAVIN 75006 PARIS",
      "codePostal": "75006",
      "commune": "PARIS"
    },
    {
      "id": "2018_00224",
      "annee": 2018,
      "beneficiaire": "PUC VOLLEY BALL",
      "siret": "38897859500030",
      "objet": "Subvention de fonctionnement 2018",
      "montant": 926000,
      "direction": "DJS",
      "nature": "Fonctionnement",
      "coordinates": {
        "lat": 48.818109,
        "lon": 2.344456
      },
      "adresse": "17 AVENUE PIERRE DE COUBERTIN 75013 PARIS",
      "codePostal": "75013",
      "commune": "PARIS"
    },
    {
      "id": "2018_05794",
      "annee": 2018,
      "beneficiaire": "CRESCENDO",
      "siret": "78481011100350",
      "objet": "Subvention d'investissement projet crèche Rue Spinoza",
      "montant": 924000,
      "direction": "DFPE",
      "nature": "Investissement",
      "coordinates": {
        "lat": 48.862478,
        "lon": 2.367835
      },
      "adresse": "102 C RUE AMELOT 75011 PARIS",
      "codePostal": "75011",
      "commune": "PARIS"
    },
    {
      "id": "2018_07559",
      "annee": 2018,
      "beneficiaire": "COALLIA",
      "siret": "77568030900611",
      "objet": "Dispositif de mise à l¿abri de jeunes migrants autonomes en attente d¿évaluation de minorité dans le",
      "montant": 915000,
      "direction": "DASES",
      "nature": "Fonctionnement",
      "coordinates": {
        "lat": 48.847248,
        "lon": 2.389037
      },
      "adresse": "16 AU 18 16 COUR SAINT-ELOI 75012 PARIS 12",
      "codePostal": "75012",
      "commune": "PARIS 12"
    },
    {
      "id": "2018_02669",
      "annee": 2018,
      "beneficiaire": "FONDATION OEUVRE DE LA CROIX SAINT-SIMON",
      "siret": "78480968300013",
      "objet": "MA & CF Villa Vauvenargues 10 rue Vauvenargues 18e",
      "montant": 886334,
      "direction": "DFPE",
      "nature": "Fonctionnement",
      "coordinates": {
        "lat": 48.878208,
        "lon": 2.382497
      },
      "adresse": "35 RUE DU PLATEAU 75019 PARIS",
      "codePostal": "75019",
      "commune": "PARIS"
    },
    {
      "id": "2018_00264",
      "annee": 2018,
      "beneficiaire": "ASSOCIATION INSTITUT D'ÉTUDES AVANCÉES DE PARIS",
      "siret": "53005653000039",
      "objet": "Fonctionnement de l'association pour l'année 2018",
      "montant": 850000,
      "direction": "DAE",
      "nature": "Fonctionnement",
      "coordinates": {
        "lat": 48.851698,
        "lon": 2.359062
      },
      "adresse": "HOTEL DE LAUZUN 17 QUAI D'ANJOU 75004 PARIS",
      "codePostal": "75004",
      "commune": "PARIS"
    },
    {
      "id": "2018_05868",
      "annee": 2018,
      "beneficiaire": "FRANCE TERRE D'ASILE - FTDA",
      "siret": "78454750700433",
      "objet": "Maraude-Migrants 75",
      "montant": 775000,
      "direction": "DASES",
      "nature": "Projet",
      "coordinates": {
        "lat": 48.892128,
        "lon": 2.362175
      },
      "adresse": "24 RUE MARC SEGUIN 75018 PARIS",
      "codePostal": "75018",
      "commune": "PARIS"
    },
    {
      "id": "2018_05487",
      "annee": 2018,
      "beneficiaire": "ASSOCIATION POUR LE DEPISTAGE DES CANCERS A PARIS",
      "siret": "44456153400025",
      "objet": "Dépistage des cancers à Paris",
      "montant": 750000,
      "direction": "DASES",
      "nature": "Projet",
      "coordinates": {
        "lat": 48.864388,
        "lon": 2.355357
      },
      "adresse": "82 RUE BEAUBOURG 75003 PARIS",
      "codePostal": "75003",
      "commune": "PARIS"
    },
    {
      "id": "2018_07722",
      "annee": 2018,
      "beneficiaire": "EMMAUS SOLIDARITE",
      "siret": "31723624800017",
      "objet": "Accueil Familles Henri IV",
      "montant": 715730,
      "direction": "DASES",
      "nature": "Fonctionnement",
      "coordinates": {
        "lat": 48.860017,
        "lon": 2.345244
      },
      "adresse": "32 RUE DES BOURDONNAIS 75001 PARIS",
      "codePostal": "75001",
      "commune": "PARIS"
    },
    {
      "id": "2018_08335",
      "annee": 2018,
      "beneficiaire": "ASSOCIATION DES CITÉS DU SECOURS CATHOLIQUE",
      "siret": "35330523800175",
      "objet": "demande de subvention d'investissement création d'un multi accueil collectif de 42 berceaux Orfila",
      "montant": 695696,
      "direction": "DFPE",
      "nature": "Investissement",
      "coordinates": {
        "lat": 48.867088,
        "lon": 2.398162
      },
      "adresse": "72 RUE ORFILA 75020 PARIS",
      "codePostal": "75020",
      "commune": "PARIS"
    },
    {
      "id": "2018_00256",
      "annee": 2018,
      "beneficiaire": "ATELIER PARISIEN D'URBANISME",
      "siret": "78423753900043",
      "objet": "Subvention partenariale 2018 Département de ParisBudget en fonctionnement",
      "montant": 693000,
      "direction": "DU",
      "nature": "Fonctionnement",
      "coordinates": {
        "lat": 48.825563,
        "lon": 2.38353
      },
      "adresse": "5EME ETAGE 15 RUE JEAN-BAPTISTE BERLIER 75013 PARIS",
      "codePostal": "75013",
      "commune": "PARIS"
    },
    {
      "id": "2018_03067",
      "annee": 2018,
      "beneficiaire": "CENTRE D'ACTION SOCIALE PROTESTANT DANS LA REGION PARISIENNE",
      "siret": "31873216100035",
      "objet": "ACCUEIL DES MINEURS  EN ERRANCE - 18EME ARRONDISEMENT DE PARIS",
      "montant": 684967,
      "direction": "DASES",
      "nature": "Fonctionnement",
      "coordinates": {
        "lat": 48.842892,
        "lon": 2.399655
      },
      "adresse": "CASP 20 RUE SANTERRE 75012 PARIS",
      "codePostal": "75012",
      "commune": "PARIS"
    },
    {
      "id": "2018_06047",
      "annee": 2018,
      "beneficiaire": "ASSOCIATION DEPARTEMENTALE D'INFORMATION SUR LE LOGEMENT",
      "siret": "31548372700048",
      "objet": "SUBVENTION VILLE DE PARIS",
      "montant": 676000,
      "direction": "DLH",
      "nature": "Fonctionnement",
      "coordinates": {
        "lat": 48.84092,
        "lon": 2.326148
      },
      "adresse": "46 B BOULEVARD EDGAR QUINET 75014 PARIS",
      "codePostal": "75014",
      "commune": "PARIS"
    },
    {
      "id": "2018_03634",
      "annee": 2018,
      "beneficiaire": "THÉÂTRE SILVIA MONFORT",
      "siret": "38772311700017",
      "objet": "subvention de fonctionnement",
      "montant": 675000,
      "direction": "DAC",
      "nature": "Fonctionnement",
      "coordinates": {
        "lat": 48.830303,
        "lon": 2.301819
      },
      "adresse": "106 RUE BRANCION 75015 PARIS",
      "codePostal": "75015",
      "commune": "PARIS"
    },
    {
      "id": "2018_03074",
      "annee": 2018,
      "beneficiaire": "INSTITUT DES CULTURES D'ISLAM",
      "siret": "52225251900015",
      "objet": "Subvention de fonctionnement",
      "montant": 675000,
      "direction": "DAC",
      "nature": "Fonctionnement",
      "coordinates": {
        "lat": 48.887787,
        "lon": 2.353435
      },
      "adresse": "19 AU 23 19 RUE LEON 75018 PARIS",
      "codePostal": "75018",
      "commune": "PARIS"
    },
    {
      "id": "2018_07504",
      "annee": 2018,
      "beneficiaire": "CROIX ROUGE FRANCAISE (NATIONALE)",
      "siret": "77567227221138",
      "objet": "Fonctionnement 2018 de la Crèche collective 14 rue Yvart 15e",
      "montant": 659350,
      "direction": "DFPE",
      "nature": "Fonctionnement",
      "coordinates": {
        "lat": 48.827226,
        "lon": 2.314209
      },
      "adresse": "SITE CROIX ROUGE 98 RUE DIDOT 75014 PARIS",
      "codePostal": "75014",
      "commune": "PARIS"
    },
    {
      "id": "2018_05859",
      "annee": 2018,
      "beneficiaire": "ASSOCIATION INTERDÉPARTEMENTALE POUR LA GESTION DU RÉSEAU AUTOMATIQUE DE SURVEILLANCE MESURE DE LA POLLUTION ATMOSPHÉRIQUE, ET D'ALERTE EN RÉGION ILE DE FRANCE",
      "siret": "31646523600032",
      "objet": "Subvention générale de Fonctionnement à Airparif pour l'année 2018",
      "montant": 646566,
      "direction": "DEVE",
      "nature": "Fonctionnement",
      "coordinates": {
        "lat": 48.848962,
        "lon": 2.36528
      },
      "adresse": "7 RUE CRILLON 75004 PARIS",
      "codePostal": "75004",
      "commune": "PARIS"
    },
    {
      "id": "2018_03441",
      "annee": 2018,
      "beneficiaire": "THÉÂTRE SILVIA MONFORT",
      "siret": "38772311700017",
      "objet": "acompte 2018 - DAC",
      "montant": 625000,
      "direction": "DAC",
      "nature": "Fonctionnement",
      "coordinates": {
        "lat": 48.830303,
        "lon": 2.301819
      },
      "adresse": "106 RUE BRANCION 75015 PARIS",
      "codePostal": "75015",
      "commune": "PARIS"
    },
    {
      "id": "2018_03345",
      "annee": 2018,
      "beneficiaire": "INSTITUT DES CULTURES D'ISLAM",
      "siret": "52225251900015",
      "objet": "acompte 2018 - DAC",
      "montant": 625000,
      "direction": "DAC",
      "nature": "Fonctionnement",
      "coordinates": {
        "lat": 48.887787,
        "lon": 2.353435
      },
      "adresse": "19 AU 23 19 RUE LEON 75018 PARIS",
      "codePostal": "75018",
      "commune": "PARIS"
    },
    {
      "id": "2018_02540",
      "annee": 2018,
      "beneficiaire": "CARAMEL",
      "siret": "42984735300019",
      "objet": "Crèches en appartement Paris 12e et 19e",
      "montant": 620174,
      "direction": "DFPE",
      "nature": "Fonctionnement",
      "coordinates": {
        "lat": 48.835643,
        "lon": 2.396653
      },
      "adresse": "48 RUE DE WATTIGNIES 75012 PARIS 12",
      "codePostal": "75012",
      "commune": "PARIS 12"
    },
    {
      "id": "2018_05987",
      "annee": 2018,
      "beneficiaire": "ASSOCIATION LA PLANÈTE DES ENFANTS",
      "siret": "48442110200027",
      "objet": "Demande de subvention d'investissement pour la création d'un EAJE de 28 places \"Les Etoiles de Philidor\"",
      "montant": 605704,
      "direction": "DFPE",
      "nature": "Investissement",
      "coordinates": {
        "lat": 48.830559,
        "lon": 2.324413
      },
      "adresse": "6 VILLA MODERNE 75014 PARIS",
      "codePostal": "75014",
      "commune": "PARIS"
    },
    {
      "id": "2018_03554",
      "annee": 2018,
      "beneficiaire": "LA PLACE - CENTRE CULTUREL HIPHOP",
      "siret": "80289090500010",
      "objet": "La Place - Centre Hip Hop - subvention de fonctionnement 2018",
      "montant": 605000,
      "direction": "DAC",
      "nature": "Fonctionnement",
      "coordinates": {
        "lat": 48.861819,
        "lon": 2.347644
      },
      "adresse": "10 PASSAGE DE LA CANOPEE 75001 PARIS",
      "codePostal": "75001",
      "commune": "PARIS"
    },
    {
      "id": "2018_02661",
      "annee": 2018,
      "beneficiaire": "FONDATION OEUVRE DE LA CROIX SAINT-SIMON",
      "siret": "78480968300013",
      "objet": "CC Framboise  20 rue Carducci 19e",
      "montant": 602952,
      "direction": "DFPE",
      "nature": "Fonctionnement",
      "coordinates": {
        "lat": 48.878208,
        "lon": 2.382497
      },
      "adresse": "35 RUE DU PLATEAU 75019 PARIS",
      "codePostal": "75019",
      "commune": "PARIS"
    },
    {
      "id": "2018_02481",
      "annee": 2018,
      "beneficiaire": "ABC PUÉRICULTURE",
      "siret": "34482479200032",
      "objet": "14e ours 21 rue jonquoy 75014 paris",
      "montant": 586308,
      "direction": "DFPE",
      "nature": "Fonctionnement",
      "coordinates": {
        "lat": 48.852284,
        "lon": 2.274995
      },
      "adresse": "9 RUE JEAN DE LA FONTAINE 75016 PARIS",
      "codePostal": "75016",
      "commune": "PARIS"
    },
    {
      "id": "2018_03354",
      "annee": 2018,
      "beneficiaire": "LA PLACE - CENTRE CULTUREL HIPHOP",
      "siret": "80289090500010",
      "objet": "acompte 2018-dac",
      "montant": 575000,
      "direction": "DAC",
      "nature": "Fonctionnement",
      "coordinates": {
        "lat": 48.861819,
        "lon": 2.347644
      },
      "adresse": "10 PASSAGE DE LA CANOPEE 75001 PARIS",
      "codePostal": "75001",
      "commune": "PARIS"
    },
    {
      "id": "2018_02650",
      "annee": 2018,
      "beneficiaire": "FONDATION OEUVRE DE LA CROIX SAINT-SIMON",
      "siret": "78480968300013",
      "objet": "CF Clavel 6bis, rue Clavel 19e",
      "montant": 574668,
      "direction": "DFPE",
      "nature": "Fonctionnement",
      "coordinates": {
        "lat": 48.878208,
        "lon": 2.382497
      },
      "adresse": "35 RUE DU PLATEAU 75019 PARIS",
      "codePostal": "75019",
      "commune": "PARIS"
    },
    {
      "id": "2018_02744",
      "annee": 2018,
      "beneficiaire": "ENFANT PRESENT",
      "siret": "39027802600047",
      "objet": "subvention 2018 Marcadet crèche familiale",
      "montant": 566728,
      "direction": "DFPE",
      "nature": "Fonctionnement",
      "coordinates": {
        "lat": 48.86644,
        "lon": 2.405173
      },
      "adresse": "15 RUE DES MONTIBOEUFS 75020 PARIS",
      "codePostal": "75020",
      "commune": "PARIS"
    },
    {
      "id": "2018_04352",
      "annee": 2018,
      "beneficiaire": "ESPACE 19",
      "siret": "32228389600049",
      "objet": "Demande de financement des centres sociaux Espace 19 - année 2018 - DASES SEPLEX",
      "montant": 561503,
      "direction": "DASES",
      "nature": "Projet",
      "coordinates": {
        "lat": 48.895716,
        "lon": 2.374611
      },
      "adresse": "6 RUE HENRI VERNEUIL 75019 PARIS",
      "codePostal": "75019",
      "commune": "PARIS"
    },
    {
      "id": "2018_02646",
      "annee": 2018,
      "beneficiaire": "ENFANT PRESENT",
      "siret": "39027802600047",
      "objet": "subvention 2018 Gourdault crèche familiale",
      "montant": 552669,
      "direction": "DFPE",
      "nature": "Fonctionnement",
      "coordinates": {
        "lat": 48.86644,
        "lon": 2.405173
      },
      "adresse": "15 RUE DES MONTIBOEUFS 75020 PARIS",
      "codePostal": "75020",
      "commune": "PARIS"
    },
    {
      "id": "2018_02510",
      "annee": 2018,
      "beneficiaire": "CENTRE D'ACTION SOCIALE PROTESTANT DANS LA REGION PARISIENNE",
      "siret": "31873216100035",
      "objet": "Médiation sociale et de prévention jeunesse 2018 basée sur le démarche de prévention spécialisée",
      "montant": 549830,
      "direction": "DASES",
      "nature": "Fonctionnement",
      "coordinates": {
        "lat": 48.842892,
        "lon": 2.399655
      },
      "adresse": "CASP 20 RUE SANTERRE 75012 PARIS",
      "codePostal": "75012",
      "commune": "PARIS"
    },
    {
      "id": "2018_03834",
      "annee": 2018,
      "beneficiaire": "CITÉ INTERNATIONALE DES ARTS",
      "siret": "78424396600016",
      "objet": "Subvention de fonctionnement 2018",
      "montant": 545586,
      "direction": "DAC",
      "nature": "Fonctionnement",
      "coordinates": {
        "lat": 48.853913,
        "lon": 2.357203
      },
      "adresse": "18 RUE DE L'HOTEL DE VILLE 75004 PARIS",
      "codePostal": "75004",
      "commune": "PARIS"
    },
    {
      "id": "2018_02642",
      "annee": 2018,
      "beneficiaire": "CROIX ROUGE FRANCAISE (NATIONALE)",
      "siret": "77567227221138",
      "objet": "Crèche collective Saint Pierre du Gros Caillou, 182 rue de Grenelle 75007 Paris",
      "montant": 528332,
      "direction": "DFPE",
      "nature": "Fonctionnement",
      "coordinates": {
        "lat": 48.827226,
        "lon": 2.314209
      },
      "adresse": "SITE CROIX ROUGE 98 RUE DIDOT 75014 PARIS",
      "codePostal": "75014",
      "commune": "PARIS"
    },
    {
      "id": "2018_02486",
      "annee": 2018,
      "beneficiaire": "ABC PUÉRICULTURE",
      "siret": "34482479200032",
      "objet": "crèche A. Chérioux 15bisrue d'alleray 75015 paris",
      "montant": 523679,
      "direction": "DFPE",
      "nature": "Fonctionnement",
      "coordinates": {
        "lat": 48.852284,
        "lon": 2.274995
      },
      "adresse": "9 RUE JEAN DE LA FONTAINE 75016 PARIS",
      "codePostal": "75016",
      "commune": "PARIS"
    },
    {
      "id": "2017_06894",
      "annee": 2018,
      "beneficiaire": "OEUVRE DE L'HOSPITALITÉ DU TRAVAIL",
      "siret": "77568891400016",
      "objet": "Direction des personnes handicapées - Sous direction de l'Autonomie - DASES",
      "montant": 520000,
      "direction": "DASES",
      "nature": "Investissement",
      "coordinates": {
        "lat": 48.848447,
        "lon": 2.274505
      },
      "adresse": "52 AV DE VERSAILLES 75016 PARIS 16",
      "codePostal": "75016",
      "commune": "PARIS 16"
    },
    {
      "id": "2018_03389",
      "annee": 2018,
      "beneficiaire": "LES PLATEAUX SAUVAGES",
      "siret": "82349520500010",
      "objet": "FONCTIONNEMENT",
      "montant": 515000,
      "direction": "DAC",
      "nature": "Fonctionnement",
      "coordinates": {
        "lat": 48.867853,
        "lon": 2.389335
      },
      "adresse": "5 RUE DES PLATRIERES 75020 PARIS",
      "codePostal": "75020",
      "commune": "PARIS"
    },
    {
      "id": "2018_03366",
      "annee": 2018,
      "beneficiaire": "LES PLATEAUX SAUVAGES",
      "siret": "82349520500010",
      "objet": "acompte 2018",
      "montant": 515000,
      "direction": "DAC",
      "nature": "Fonctionnement",
      "coordinates": {
        "lat": 48.867853,
        "lon": 2.389335
      },
      "adresse": "5 RUE DES PLATRIERES 75020 PARIS",
      "codePostal": "75020",
      "commune": "PARIS"
    },
    {
      "id": "2018_03318",
      "annee": 2018,
      "beneficiaire": "ENVOLUDIA",
      "siret": "77573329800183",
      "objet": "Bambini",
      "montant": 503181,
      "direction": "DFPE",
      "nature": "Fonctionnement",
      "coordinates": {
        "lat": 48.854579,
        "lon": 2.417068
      },
      "adresse": "261 RUE DE PARIS 93100 MONTREUIL",
      "codePostal": "93100",
      "commune": "MONTREUIL"
    },
    {
      "id": "2018_07126",
      "annee": 2018,
      "beneficiaire": "ASSOCIATION NOTRE-DAME DE BON SECOURS",
      "siret": "77568298200019",
      "objet": "Exploitation LIMA14  2018-2019",
      "montant": 487944,
      "direction": "DASES",
      "nature": "Fonctionnement",
      "coordinates": {
        "lat": 48.826379,
        "lon": 2.319657
      },
      "adresse": "68 RUE DES PLANTES 75014 PARIS",
      "codePostal": "75014",
      "commune": "PARIS"
    },
    {
      "id": "2018_03371",
      "annee": 2018,
      "beneficiaire": "MAISON DE LA POESIE",
      "siret": "32590961200047",
      "objet": "acompte 2018",
      "montant": 485000,
      "direction": "DAC",
      "nature": "Fonctionnement",
      "coordinates": {
        "lat": 48.86218,
        "lon": 2.351844
      },
      "adresse": "157 RUE SAINT-MARTIN 75003 PARIS",
      "codePostal": "75003",
      "commune": "PARIS"
    },
    {
      "id": "2018_03372",
      "annee": 2018,
      "beneficiaire": "MAISON DE LA POESIE",
      "siret": "32590961200047",
      "objet": "Subvention de fonctionnement 2018",
      "montant": 485000,
      "direction": "DAC",
      "nature": "Fonctionnement",
      "coordinates": {
        "lat": 48.86218,
        "lon": 2.351844
      },
      "adresse": "157 RUE SAINT-MARTIN 75003 PARIS",
      "codePostal": "75003",
      "commune": "PARIS"
    },
    {
      "id": "2018_03261",
      "annee": 2018,
      "beneficiaire": "ASSOCIATION PARISIENNE POUR L'ANIMATION CULTURELLE ET SPORTIVE",
      "siret": "78454742400043",
      "objet": "acompte 2018",
      "montant": 475000,
      "direction": "DAC",
      "nature": "Fonctionnement",
      "coordinates": {
        "lat": 48.827622,
        "lon": 2.377256
      },
      "adresse": "30 RUE DU CHEVALERET 75013 PARIS",
      "codePostal": "75013",
      "commune": "PARIS"
    },
    {
      "id": "2018_03259",
      "annee": 2018,
      "beneficiaire": "ASSOCIATION PARISIENNE POUR L'ANIMATION CULTURELLE ET SPORTIVE",
      "siret": "78454742400043",
      "objet": "Subvention de fonctionnement année 2018",
      "montant": 475000,
      "direction": "DAC",
      "nature": "Fonctionnement",
      "coordinates": {
        "lat": 48.827622,
        "lon": 2.377256
      },
      "adresse": "30 RUE DU CHEVALERET 75013 PARIS",
      "codePostal": "75013",
      "commune": "PARIS"
    },
    {
      "id": "2018_08495",
      "annee": 2018,
      "beneficiaire": "CENTRE D'ACTION SOCIALE PROTESTANT DANS LA REGION PARISIENNE",
      "siret": "31873216100035",
      "objet": "ACCUEIL DES MINEURS  EN ERRANCE - 18EME ARRONDISEMENT DE PARIS",
      "montant": 473935,
      "direction": "DASES",
      "nature": "Projet",
      "coordinates": {
        "lat": 48.842892,
        "lon": 2.399655
      },
      "adresse": "CASP 20 RUE SANTERRE 75012 PARIS",
      "codePostal": "75012",
      "commune": "PARIS"
    },
    {
      "id": "2018_02662",
      "annee": 2018,
      "beneficiaire": "FONDATION OEUVRE DE LA CROIX SAINT-SIMON",
      "siret": "78480968300013",
      "objet": "CC Père Lachaise 3 place Martin Nadaud 20e",
      "montant": 464995,
      "direction": "DFPE",
      "nature": "Fonctionnement",
      "coordinates": {
        "lat": 48.878208,
        "lon": 2.382497
      },
      "adresse": "35 RUE DU PLATEAU 75019 PARIS",
      "codePostal": "75019",
      "commune": "PARIS"
    },
    {
      "id": "2018_02424",
      "annee": 2018,
      "beneficiaire": "FONDATION LEOPOLD BELLAN",
      "siret": "77567216500013",
      "objet": "Fonctionnement 2018 structure multi-accueil André Rousseau",
      "montant": 456091,
      "direction": "DFPE",
      "nature": "Fonctionnement",
      "coordinates": {
        "lat": 48.878811,
        "lon": 2.31922
      },
      "adresse": "CENTRE DE FRATERNITE SOCIA 64 RUE DU ROCHER 75008 PARIS",
      "codePostal": "75008",
      "commune": "PARIS"
    },
    {
      "id": "2018_02655",
      "annee": 2018,
      "beneficiaire": "FONDATION OEUVRE DE LA CROIX SAINT-SIMON",
      "siret": "78480968300013",
      "objet": "MS (HG & CF) La Souris Verte 14 bld Gouvion Saint Cyr  17e",
      "montant": 450319,
      "direction": "DFPE",
      "nature": "Fonctionnement",
      "coordinates": {
        "lat": 48.878208,
        "lon": 2.382497
      },
      "adresse": "35 RUE DU PLATEAU 75019 PARIS",
      "codePostal": "75019",
      "commune": "PARIS"
    },
    {
      "id": "2018_03820",
      "annee": 2018,
      "beneficiaire": "LE THEATRE PARIS VILLETTE",
      "siret": "43353723000040",
      "objet": "SUBVENTION DE FONCTIONNEMENT 2018",
      "montant": 450000,
      "direction": "DAC",
      "nature": "Fonctionnement",
      "coordinates": {
        "lat": 48.888952,
        "lon": 2.392454
      },
      "adresse": "211 AVENUE JEAN JAURES 75019 PARIS",
      "codePostal": "75019",
      "commune": "PARIS"
    },
    {
      "id": "2018_03361",
      "annee": 2018,
      "beneficiaire": "LE THEATRE PARIS VILLETTE",
      "siret": "43353723000040",
      "objet": "acompte 2018 - DAC",
      "montant": 450000,
      "direction": "DAC",
      "nature": "Fonctionnement",
      "coordinates": {
        "lat": 48.888952,
        "lon": 2.392454
      },
      "adresse": "211 AVENUE JEAN JAURES 75019 PARIS",
      "codePostal": "75019",
      "commune": "PARIS"
    },
    {
      "id": "2018_05017",
      "annee": 2018,
      "beneficiaire": "LA MAISON KANGOUROU",
      "siret": "45234009400203",
      "objet": "Investissement Léon Frot",
      "montant": 441639,
      "direction": "DFPE",
      "nature": "Investissement",
      "coordinates": {
        "lat": 48.869209,
        "lon": 2.360352
      },
      "adresse": "10 RUE DE LANCRY 75010 PARIS",
      "codePostal": "75010",
      "commune": "PARIS"
    },
    {
      "id": "2018_02736",
      "annee": 2018,
      "beneficiaire": "CRESCENDO",
      "siret": "78481011100350",
      "objet": "structure multi-accueil        La Maison de Gavroche",
      "montant": 440000,
      "direction": "DFPE",
      "nature": "Fonctionnement",
      "coordinates": {
        "lat": 48.862478,
        "lon": 2.367835
      },
      "adresse": "102 C RUE AMELOT 75011 PARIS",
      "codePostal": "75011",
      "commune": "PARIS"
    },
    {
      "id": "2018_08334",
      "annee": 2018,
      "beneficiaire": "OEUVRES D'AVENIR",
      "siret": "53845538700026",
      "objet": "Travaux d'agencement et aménagement d'un établissement médico-social et d'une cuisine centrale",
      "montant": 425000,
      "direction": "DASES",
      "nature": "Investissement",
      "coordinates": {
        "lat": 48.779888,
        "lon": 2.316407
      },
      "adresse": "5 RUE RAVON 92340 BOURG-LA-REINE",
      "codePostal": "92340",
      "commune": "BOURG-LA-REINE"
    },
    {
      "id": "2018_00415",
      "annee": 2018,
      "beneficiaire": "PARIS UNIVERSITE CLUB - CITE INTERNATIONALE UNIVERSITAIRE DE PARIS",
      "siret": "78425962400020",
      "objet": "Convention d'objectif d'aide au fonctionnement entre la Ville de Paris et le Paris Université Club",
      "montant": 424000,
      "direction": "DJS",
      "nature": "Fonctionnement",
      "coordinates": {
        "lat": 48.818109,
        "lon": 2.344456
      },
      "adresse": "STADE CHARLETY 17 AVENUE PIERRE DE COUBERTIN 75013 PARIS",
      "codePostal": "75013",
      "commune": "PARIS"
    },
    {
      "id": "2018_03731",
      "annee": 2018,
      "beneficiaire": "LA MAISON KANGOUROU",
      "siret": "45234009400203",
      "objet": "Crèche Picpus 36 rue de Picpus Paris (12e)",
      "montant": 417155,
      "direction": "DFPE",
      "nature": "Fonctionnement",
      "coordinates": {
        "lat": 48.869209,
        "lon": 2.360352
      },
      "adresse": "10 RUE DE LANCRY 75010 PARIS",
      "codePostal": "75010",
      "commune": "PARIS"
    },
    {
      "id": "2018_02688",
      "annee": 2018,
      "beneficiaire": "MAISON DES CHAMPS DE SAINT FRANCOIS D'ASSISE",
      "siret": "77569476300050",
      "objet": "Fonctionnement 2018",
      "montant": 416187,
      "direction": "DFPE",
      "nature": "Fonctionnement",
      "coordinates": {
        "lat": 48.87327,
        "lon": 2.381529
      },
      "adresse": "55 RUE DE BELLEVILLE 75019 PARIS",
      "codePostal": "75019",
      "commune": "PARIS"
    },
    {
      "id": "2018_02679",
      "annee": 2018,
      "beneficiaire": "INSTITUT D'ETUDES, DE RECHERCHE, DE FORMATION EN ACTION SOCIALE",
      "siret": "77566475800049",
      "objet": "Crèche Collective Fourcade 25-29 rue Général Beuret 75015 PARIS",
      "montant": 416124,
      "direction": "DFPE",
      "nature": "Fonctionnement",
      "coordinates": {
        "lat": 48.840527,
        "lon": 2.302446
      },
      "adresse": "25 A 29 25 RUE DU GENERAL BEURET 75015 PARIS",
      "codePostal": "75015",
      "commune": "PARIS"
    },
    {
      "id": "2018_00310",
      "annee": 2018,
      "beneficiaire": "FONDATION OEUVRE DE LA CROIX SAINT-SIMON",
      "siret": "78480968300013",
      "objet": "MA rue Nicolo BP 2018Création du MA rue Nicolo 38 rue Nicolo75016 Paris",
      "montant": 412617,
      "direction": "DFPE",
      "nature": "Fonctionnement",
      "coordinates": {
        "lat": 48.878208,
        "lon": 2.382497
      },
      "adresse": "35 RUE DU PLATEAU 75019 PARIS",
      "codePostal": "75019",
      "commune": "PARIS"
    },
    {
      "id": "2018_01629",
      "annee": 2018,
      "beneficiaire": "MAISON DU GESTE ET DE L'IMAGE - CENTRE DE RECHERCHE ET D'ÉDUCATION ARTISTIQUE",
      "siret": "32867933700035",
      "objet": "DEMANDE DE SUBVENTION DE LA MAISON DU GESTE ET DE L'IMAGE POUR 2018",
      "montant": 405000,
      "direction": "DAC",
      "nature": "Fonctionnement",
      "coordinates": {
        "lat": 48.860539,
        "lon": 2.348593
      },
      "adresse": "42 RUE SAINT-DENIS 75001 PARIS",
      "codePostal": "75001",
      "commune": "PARIS"
    },
    {
      "id": "2018_03370",
      "annee": 2018,
      "beneficiaire": "MAISON DU GESTE ET DE L'IMAGE - CENTRE DE RECHERCHE ET D'ÉDUCATION ARTISTIQUE",
      "siret": "32867933700035",
      "objet": "acompte 2018 - DAC",
      "montant": 405000,
      "direction": "DAC",
      "nature": "Fonctionnement",
      "coordinates": {
        "lat": 48.860539,
        "lon": 2.348593
      },
      "adresse": "42 RUE SAINT-DENIS 75001 PARIS",
      "codePostal": "75001",
      "commune": "PARIS"
    },
    {
      "id": "2018_03234",
      "annee": 2018,
      "beneficiaire": "ASSOCIATION AU SERVICE DES AUTISTES ET DE LA PEDAGOGIE ASAP",
      "siret": "43365882000025",
      "objet": "Projet de création d'un Foyer de vie pour 12 adultes autistes à Paris ouvert 365 jours par an.",
      "montant": 400000,
      "direction": "DASES",
      "nature": "Investissement",
      "coordinates": {
        "lat": 48.852796,
        "lon": 2.371339
      },
      "adresse": "21 RUE DU FBG ST ANTOINE 75011 PARIS 11",
      "codePostal": "75011",
      "commune": "PARIS 11"
    },
    {
      "id": "2018_02851",
      "annee": 2018,
      "beneficiaire": "UNIS CITE",
      "siret": "39819156900000",
      "objet": "Renouvellement de la Subvention \"Volontaires de Paris\" pour l'année 2018-2019\"",
      "montant": 400000,
      "direction": "DAE",
      "nature": "Fonctionnement"
    },
    {
      "id": "2018_00138",
      "annee": 2018,
      "beneficiaire": "ECOLE DE LA 2E CHANCE DE PARIS",
      "siret": "49300518500050",
      "objet": "fonctionnement",
      "montant": 400000,
      "direction": "DAE",
      "nature": "Fonctionnement",
      "coordinates": {
        "lat": 48.887541,
        "lon": 2.366997
      },
      "adresse": "47 RUE D'AUBERVILLIERS 75018 PARIS",
      "codePostal": "75018",
      "commune": "PARIS"
    },
    {
      "id": "2018_04267",
      "annee": 2018,
      "beneficiaire": "PARIS ET COMPAGNIE",
      "siret": "40895436000033",
      "objet": "investissement Paris&Co 2018",
      "montant": 400000,
      "direction": "DAE",
      "nature": "Investissement",
      "coordinates": {
        "lat": 48.894069,
        "lon": 2.35423
      },
      "adresse": "48 RUE RENE CLAIR 75018 PARIS",
      "codePostal": "75018",
      "commune": "PARIS"
    },
    {
      "id": "2018_04247",
      "annee": 2018,
      "beneficiaire": "L'ETE PARISIEN",
      "siret": "37978422600043",
      "objet": "subvention de fonctionnement",
      "montant": 400000,
      "direction": "DAC",
      "nature": "Fonctionnement",
      "coordinates": {
        "lat": 48.830303,
        "lon": 2.301819
      },
      "adresse": "106 RUE BRANCION 75015 PARIS",
      "codePostal": "75015",
      "commune": "PARIS"
    },
    {
      "id": "2018_03351",
      "annee": 2018,
      "beneficiaire": "L'ETE PARISIEN",
      "siret": "37978422600043",
      "objet": "acompte 2018-dac",
      "montant": 400000,
      "direction": "DAC",
      "nature": "Fonctionnement",
      "coordinates": {
        "lat": 48.830303,
        "lon": 2.301819
      },
      "adresse": "106 RUE BRANCION 75015 PARIS",
      "codePostal": "75015",
      "commune": "PARIS"
    },
    {
      "id": "2018_03426",
      "annee": 2018,
      "beneficiaire": "PARIS INITIATIVE ENTREPRISE",
      "siret": "34802705300043",
      "objet": "Dotation au fonds de prêts d'honneur de Paris Initiative Entreprise",
      "montant": 400000,
      "direction": "DAE",
      "nature": "Investissement",
      "coordinates": {
        "lat": 48.878386,
        "lon": 2.315877
      },
      "adresse": "68 BOULEVARD MALESHERBES 75008 PARIS",
      "codePostal": "75008",
      "commune": "PARIS"
    },
    {
      "id": "2018_02746",
      "annee": 2018,
      "beneficiaire": "ENFANT PRESENT",
      "siret": "39027802600047",
      "objet": "subvention 2018 Christine Augun - Panoyaux crèche familiale",
      "montant": 396171,
      "direction": "DFPE",
      "nature": "Fonctionnement",
      "coordinates": {
        "lat": 48.86644,
        "lon": 2.405173
      },
      "adresse": "15 RUE DES MONTIBOEUFS 75020 PARIS",
      "codePostal": "75020",
      "commune": "PARIS"
    },
    {
      "id": "2018_03872",
      "annee": 2018,
      "beneficiaire": "LA MAISON DES BOUT'CHOU",
      "siret": "35118614300175",
      "objet": "Bout'chou 2,  3/5, passage Chanvin Paris (13e)",
      "montant": 390273,
      "direction": "DFPE",
      "nature": "Fonctionnement",
      "coordinates": {
        "lat": 48.844295,
        "lon": 2.331113
      },
      "adresse": "12 RUE VAVIN 75006 PARIS",
      "codePostal": "75006",
      "commune": "PARIS"
    },
    {
      "id": "2018_02721",
      "annee": 2018,
      "beneficiaire": "FONDATION LEOPOLD BELLAN",
      "siret": "77567216500013",
      "objet": "crèche collective       Crèche du 16ème",
      "montant": 383302,
      "direction": "DFPE",
      "nature": "Fonctionnement",
      "coordinates": {
        "lat": 48.878811,
        "lon": 2.31922
      },
      "adresse": "CENTRE DE FRATERNITE SOCIA 64 RUE DU ROCHER 75008 PARIS",
      "codePostal": "75008",
      "commune": "PARIS"
    },
    {
      "id": "2018_03327",
      "annee": 2018,
      "beneficiaire": "FESTIVAL D'AUTOMNE À PARIS",
      "siret": "78439645900041",
      "objet": "Festival d'Automne à Paris 2018",
      "montant": 379600,
      "direction": "DAC",
      "nature": "Fonctionnement",
      "coordinates": {
        "lat": 48.861188,
        "lon": 2.340468
      },
      "adresse": "156 RUE DE RIVOLI 75001 PARIS",
      "codePostal": "75001",
      "commune": "PARIS"
    },
    {
      "id": "2018_03328",
      "annee": 2018,
      "beneficiaire": "FESTIVAL D'AUTOMNE À PARIS",
      "siret": "78439645900041",
      "objet": "acompte 2018-dac",
      "montant": 379600,
      "direction": "DAC",
      "nature": "Fonctionnement",
      "coordinates": {
        "lat": 48.861188,
        "lon": 2.340468
      },
      "adresse": "156 RUE DE RIVOLI 75001 PARIS",
      "codePostal": "75001",
      "commune": "PARIS"
    },
    {
      "id": "2018_03298",
      "annee": 2018,
      "beneficiaire": "CRÈCHE LAÏQUE DU QUARTIER SAINT-FARGEAU",
      "siret": "78480818000011",
      "objet": "FONCTIONNEMENT 2018",
      "montant": 366735,
      "direction": "DFPE",
      "nature": "Fonctionnement",
      "coordinates": {
        "lat": 48.873717,
        "lon": 2.399092
      },
      "adresse": "33 RUE DU TELEGRAPHE 75020 PARIS",
      "codePostal": "75020",
      "commune": "PARIS"
    },
    {
      "id": "2018_02722",
      "annee": 2018,
      "beneficiaire": "FONDATION LEOPOLD BELLAN",
      "siret": "77567216500013",
      "objet": "crèche collective       Point du jour",
      "montant": 364453,
      "direction": "DFPE",
      "nature": "Fonctionnement",
      "coordinates": {
        "lat": 48.878811,
        "lon": 2.31922
      },
      "adresse": "CENTRE DE FRATERNITE SOCIA 64 RUE DU ROCHER 75008 PARIS",
      "codePostal": "75008",
      "commune": "PARIS"
    },
    {
      "id": "2018_02735",
      "annee": 2018,
      "beneficiaire": "CRESCENDO",
      "siret": "78481011100350",
      "objet": "crèche collective                   Bellevue",
      "montant": 361585,
      "direction": "DFPE",
      "nature": "Fonctionnement",
      "coordinates": {
        "lat": 48.862478,
        "lon": 2.367835
      },
      "adresse": "102 C RUE AMELOT 75011 PARIS",
      "codePostal": "75011",
      "commune": "PARIS"
    },
    {
      "id": "2018_03017",
      "annee": 2018,
      "beneficiaire": "ASSOCIATION GAN YOSSEF",
      "siret": "33973557300026",
      "objet": "crèche familiale",
      "montant": 358417,
      "direction": "DFPE",
      "nature": "Fonctionnement",
      "coordinates": {
        "lat": 48.869928,
        "lon": 2.388881
      },
      "adresse": "15-17 15 RUE DE LA MARE 75020 PARIS",
      "codePostal": "75020",
      "commune": "PARIS"
    },
    {
      "id": "2018_02550",
      "annee": 2018,
      "beneficiaire": "ESTRELIA",
      "siret": "34878236800032",
      "objet": "EQUIPE PSYCHO SOCIALE de l'HOPITAL MERE ENFANT DE L EST PARISIEN",
      "montant": 355991,
      "direction": "DFPE",
      "nature": "Fonctionnement",
      "coordinates": {
        "lat": 48.883257,
        "lon": 2.36004
      },
      "adresse": "10 RUE PERDONNET 75010 PARIS",
      "codePostal": "75010",
      "commune": "PARIS"
    },
    {
      "id": "2018_02740",
      "annee": 2018,
      "beneficiaire": "CRESCENDO",
      "siret": "78481011100350",
      "objet": "structure multi-accueil        Mille et une couleurs",
      "montant": 355576,
      "direction": "DFPE",
      "nature": "Fonctionnement",
      "coordinates": {
        "lat": 48.862478,
        "lon": 2.367835
      },
      "adresse": "102 C RUE AMELOT 75011 PARIS",
      "codePostal": "75011",
      "commune": "PARIS"
    },
    {
      "id": "2018_07253",
      "annee": 2018,
      "beneficiaire": "ASSOCIATION OEUVRES DE LA MIE DE PAIN",
      "siret": "77568219800053",
      "objet": "La Mie de Pain. L'Arche d'Avenirs. Subvention de fonctionnement",
      "montant": 355000,
      "direction": "DASES",
      "nature": "Projet",
      "coordinates": {
        "lat": 48.825047,
        "lon": 2.351624
      },
      "adresse": "18 RUE CHARLES FOURIER 75013 PARIS",
      "codePostal": "75013",
      "commune": "PARIS"
    },
    {
      "id": "2018_07721",
      "annee": 2018,
      "beneficiaire": "EMMAUS SOLIDARITE",
      "siret": "31723624800017",
      "objet": "CHU Ivry Familles",
      "montant": 353138,
      "direction": "DASES",
      "nature": "Fonctionnement",
      "coordinates": {
        "lat": 48.860017,
        "lon": 2.345244
      },
      "adresse": "32 RUE DES BOURDONNAIS 75001 PARIS",
      "codePostal": "75001",
      "commune": "PARIS"
    },
    {
      "id": "2018_02698",
      "annee": 2018,
      "beneficiaire": "UNION DÉPARTEMENTALE DES ASSOCIATIONS FAMILIALES DE PARIS",
      "siret": "78441204100013",
      "objet": "Saint-honoré d¿Eylau 16ème,",
      "montant": 352228,
      "direction": "DFPE",
      "nature": "Fonctionnement",
      "coordinates": {
        "lat": 48.878496,
        "lon": 2.337741
      },
      "adresse": "28 PLACE SAINT-GEORGES 75009 PARIS",
      "codePostal": "75009",
      "commune": "PARIS"
    },
    {
      "id": "2018_02716",
      "annee": 2018,
      "beneficiaire": "FONDATION LEOPOLD BELLAN",
      "siret": "77567216500013",
      "objet": "crèche collective       Mail Cléry",
      "montant": 343418,
      "direction": "DFPE",
      "nature": "Fonctionnement",
      "coordinates": {
        "lat": 48.878811,
        "lon": 2.31922
      },
      "adresse": "CENTRE DE FRATERNITE SOCIA 64 RUE DU ROCHER 75008 PARIS",
      "codePostal": "75008",
      "commune": "PARIS"
    },
    {
      "id": "2018_05725",
      "annee": 2018,
      "beneficiaire": "PARCOURS D'INSERTION - FLES DE PARIS",
      "siret": "45057704400024",
      "objet": "Mise en place d¿actions de professionnalisation pour des salariés en insertion sur le département de",
      "montant": 340000,
      "direction": "DAE",
      "nature": "Fonctionnement",
      "coordinates": {
        "lat": 48.866402,
        "lon": 2.363412
      },
      "adresse": "19 RUE BERANGER 75003 PARIS",
      "codePostal": "75003",
      "commune": "PARIS"
    },
    {
      "id": "2018_03685",
      "annee": 2018,
      "beneficiaire": "GAN MENAHEM",
      "siret": "34830108600024",
      "objet": "Jardin d'enfants SINAI",
      "montant": 339994,
      "direction": "DFPE",
      "nature": "Fonctionnement",
      "coordinates": {
        "lat": 48.894543,
        "lon": 2.365982
      },
      "adresse": "2 RUE TRISTAN TZARA 75018 PARIS",
      "codePostal": "75018",
      "commune": "PARIS"
    },
    {
      "id": "2018_03037",
      "annee": 2018,
      "beneficiaire": "GROUPE D'OEUVRES SOCIALES DE BELLEVILLE",
      "siret": "77569575200011",
      "objet": "BUDGET PREVISIONNEL PROPOSE 2018CRECHE LES PASSERELLES",
      "montant": 339256,
      "direction": "DFPE",
      "nature": "Fonctionnement",
      "coordinates": {
        "lat": 48.875394,
        "lon": 2.391695
      },
      "adresse": "162 RUE DE BELLEVILLE 75020 PARIS",
      "codePostal": "75020",
      "commune": "PARIS"
    },
    {
      "id": "2018_02663",
      "annee": 2018,
      "beneficiaire": "FONDATION OEUVRE DE LA CROIX SAINT-SIMON",
      "siret": "78480968300013",
      "objet": "MA La Providence 3 rue Oudinot 7e",
      "montant": 337428,
      "direction": "DFPE",
      "nature": "Fonctionnement",
      "coordinates": {
        "lat": 48.878208,
        "lon": 2.382497
      },
      "adresse": "35 RUE DU PLATEAU 75019 PARIS",
      "codePostal": "75019",
      "commune": "PARIS"
    },
    {
      "id": "2018_02726",
      "annee": 2018,
      "beneficiaire": "CRESCENDO",
      "siret": "78481011100350",
      "objet": "structure multi-accueil        Les Globe-trotteurs",
      "montant": 335015,
      "direction": "DFPE",
      "nature": "Fonctionnement",
      "coordinates": {
        "lat": 48.862478,
        "lon": 2.367835
      },
      "adresse": "102 C RUE AMELOT 75011 PARIS",
      "codePostal": "75011",
      "commune": "PARIS"
    },
    {
      "id": "2018_04071",
      "annee": 2018,
      "beneficiaire": "ASSOCIATION GAN YAEL CRECHE ET JARDIN D ENFANTS",
      "siret": "31982198900013",
      "objet": "CRECHE FAMILIALE",
      "montant": 328186,
      "direction": "DFPE",
      "nature": "Fonctionnement",
      "coordinates": {
        "lat": 48.890379,
        "lon": 2.385889
      },
      "adresse": "CRECHE COLLECTIVE 29 RUE DE THIONVILLE 75019 PARIS",
      "codePostal": "75019",
      "commune": "PARIS"
    },
    {
      "id": "2018_04291",
      "annee": 2018,
      "beneficiaire": "AGENCE PARISIENNE DU CLIMAT",
      "siret": "52800732100011",
      "objet": "Subvention DEVE-DLH-DU 2018",
      "montant": 325000,
      "direction": "DEVE",
      "nature": "Fonctionnement",
      "coordinates": {
        "lat": 48.833505,
        "lon": 2.386307
      },
      "adresse": "PAVILLON DU LAC PARC DE BERCY 3 RUE FRANCOIS TRUFFAUT 75012 PARIS",
      "codePostal": "75012",
      "commune": "PARIS"
    },
    {
      "id": "2018_03287",
      "annee": 2018,
      "beneficiaire": "CITÉ INTERNATIONALE DES ARTS",
      "siret": "78424396600016",
      "objet": "acompte 2018 - DAC",
      "montant": 324587,
      "direction": "DAC",
      "nature": "Fonctionnement",
      "coordinates": {
        "lat": 48.853913,
        "lon": 2.357203
      },
      "adresse": "18 RUE DE L'HOTEL DE VILLE 75004 PARIS",
      "codePostal": "75004",
      "commune": "PARIS"
    },
    {
      "id": "2018_02896",
      "annee": 2018,
      "beneficiaire": "LE DAUPHIN BLEU",
      "siret": "35029993900024",
      "objet": "Le Dauphin BLeu, Paris 18",
      "montant": 324510,
      "direction": "DFPE",
      "nature": "Fonctionnement",
      "coordinates": {
        "lat": 48.897216,
        "lon": 2.329553
      },
      "adresse": "81-83 81 RUE VAUVENARGUES 75018 PARIS",
      "codePostal": "75018",
      "commune": "PARIS"
    },
    {
      "id": "2018_02587",
      "annee": 2018,
      "beneficiaire": "CENTRE ISRAELITE DE MONTMARTRE",
      "siret": "78475659500012",
      "objet": "Crèche israélite de Paris, crèche collective 77 berceaux, sise 16 rue Lamarck à Paris 18e,",
      "montant": 320779,
      "direction": "DFPE",
      "nature": "Fonctionnement",
      "coordinates": {
        "lat": 48.887385,
        "lon": 2.344638
      },
      "adresse": "16 RUE LAMARCK 75018 PARIS",
      "codePostal": "75018",
      "commune": "PARIS"
    },
    {
      "id": "2019_00033",
      "annee": 2018,
      "beneficiaire": "AURORE (DAWN)",
      "siret": "77568497000384",
      "objet": "Carré des Biffins- Projet 2019",
      "montant": 320000,
      "direction": "DAE",
      "nature": "Fonctionnement",
      "coordinates": {
        "lat": 48.84261,
        "lon": 2.31629
      },
      "adresse": "SIEGE 31 RUE FALGUIERE 75015 PARIS",
      "codePostal": "75015",
      "commune": "PARIS"
    },
    {
      "id": "2018_04165",
      "annee": 2018,
      "beneficiaire": "GROUPE DE RECHERCHE ET D'ECHANGES TECHNOLOGIQUES GRET",
      "siret": "30912305700056",
      "objet": "Assainissement liquide et solide concerté et durable dans trois communes périphériques d'Antananariv",
      "montant": 319900,
      "direction": "DGRI",
      "nature": "Projet",
      "coordinates": {
        "lat": 48.833154,
        "lon": 2.467346
      },
      "adresse": "CAMPUS DU JARDIN TROPICAL 45 B AVENUE DE LA BELLE GABRIELLE 75012 PARIS",
      "codePostal": "75012",
      "commune": "PARIS"
    },
    {
      "id": "2018_04292",
      "annee": 2018,
      "beneficiaire": "AGENCE PARISIENNE DU CLIMAT",
      "siret": "52800732100011",
      "objet": "Subvention DEVE-DLH-DU 2018",
      "montant": 317333,
      "direction": "DLH",
      "nature": "Fonctionnement",
      "coordinates": {
        "lat": 48.833505,
        "lon": 2.386307
      },
      "adresse": "PAVILLON DU LAC PARC DE BERCY 3 RUE FRANCOIS TRUFFAUT 75012 PARIS",
      "codePostal": "75012",
      "commune": "PARIS"
    },
    {
      "id": "2018_03319",
      "annee": 2018,
      "beneficiaire": "ENVOLUDIA",
      "siret": "77573329800183",
      "objet": "Le Chalet",
      "montant": 313367,
      "direction": "DFPE",
      "nature": "Fonctionnement",
      "coordinates": {
        "lat": 48.854579,
        "lon": 2.417068
      },
      "adresse": "261 RUE DE PARIS 93100 MONTREUIL",
      "codePostal": "93100",
      "commune": "MONTREUIL"
    },
    {
      "id": "2018_06216",
      "annee": 2018,
      "beneficiaire": "LA MAISON KANGOUROU",
      "siret": "45234009400203",
      "objet": "Investissement projet de crèche Temple",
      "montant": 310047,
      "direction": "DFPE",
      "nature": "Investissement",
      "coordinates": {
        "lat": 48.869209,
        "lon": 2.360352
      },
      "adresse": "10 RUE DE LANCRY 75010 PARIS",
      "codePostal": "75010",
      "commune": "PARIS"
    },
    {
      "id": "2018_05903",
      "annee": 2018,
      "beneficiaire": "ASSOCIATION POUR LE LOGEMENT DES JEUNES TRAVAILLEURS ALJT",
      "siret": "77566643100322",
      "objet": "DEMANDE D'UNE SUBVENTION DE FONCTIONNEMENT AU TITRE DE LA JEUNESSE",
      "montant": 308700,
      "direction": "DJS",
      "nature": "Fonctionnement",
      "coordinates": {
        "lat": 48.888467,
        "lon": 2.38603
      },
      "adresse": "ALJT SIEGE 21 RUE DES ARDENNES 75019 PARIS",
      "codePostal": "75019",
      "commune": "PARIS"
    },
    {
      "id": "2018_03320",
      "annee": 2018,
      "beneficiaire": "ENVOLUDIA",
      "siret": "77573329800183",
      "objet": "Ram Dam",
      "montant": 308042,
      "direction": "DFPE",
      "nature": "Fonctionnement",
      "coordinates": {
        "lat": 48.854579,
        "lon": 2.417068
      },
      "adresse": "261 RUE DE PARIS 93100 MONTREUIL",
      "codePostal": "93100",
      "commune": "MONTREUIL"
    },
    {
      "id": "2018_02483",
      "annee": 2018,
      "beneficiaire": "ABC PUÉRICULTURE",
      "siret": "34482479200032",
      "objet": "au bonheur des ours 180 avenue daumesnil 75012 paris",
      "montant": 306810,
      "direction": "DFPE",
      "nature": "Fonctionnement",
      "coordinates": {
        "lat": 48.852284,
        "lon": 2.274995
      },
      "adresse": "9 RUE JEAN DE LA FONTAINE 75016 PARIS",
      "codePostal": "75016",
      "commune": "PARIS"
    },
    {
      "id": "2018_02704",
      "annee": 2018,
      "beneficiaire": "UNION DÉPARTEMENTALE DES ASSOCIATIONS FAMILIALES DE PARIS",
      "siret": "78441204100013",
      "objet": "Acquisition des locaux du 11 bis rue Blanche 75009 Paris pour un établissement multi-accueil de 32 places enfants.",
      "montant": 306585,
      "direction": "DFPE",
      "nature": "Investissement",
      "coordinates": {
        "lat": 48.878496,
        "lon": 2.337741
      },
      "adresse": "28 PLACE SAINT-GEORGES 75009 PARIS",
      "codePostal": "75009",
      "commune": "PARIS"
    },
    {
      "id": "2018_02652",
      "annee": 2018,
      "beneficiaire": "FONDATION OEUVRE DE LA CROIX SAINT-SIMON",
      "siret": "78480968300013",
      "objet": "CF Sainte Amélie 106 rue de la Réunion 20e",
      "montant": 304578,
      "direction": "DFPE",
      "nature": "Fonctionnement",
      "coordinates": {
        "lat": 48.878208,
        "lon": 2.382497
      },
      "adresse": "35 RUE DU PLATEAU 75019 PARIS",
      "codePostal": "75019",
      "commune": "PARIS"
    },
    {
      "id": "2019_00130",
      "annee": 2018,
      "beneficiaire": "LASER ASSOCIATION",
      "siret": "34025508200034",
      "objet": "dynamiques professionnelles",
      "montant": 301750,
      "direction": "DASES",
      "nature": "Fonctionnement",
      "coordinates": {
        "lat": 48.872523,
        "lon": 2.392316
      },
      "adresse": "41-43 41 RUE DES RIGOLES 75020 PARIS",
      "codePostal": "75020",
      "commune": "PARIS"
    },
    {
      "id": "2018_02685",
      "annee": 2018,
      "beneficiaire": "LES CANAUX",
      "siret": "82868623800019",
      "objet": "Demande de subvention de fonctionnement",
      "montant": 300000,
      "direction": "DAE",
      "nature": "Fonctionnement",
      "coordinates": {
        "lat": 48.884656,
        "lon": 2.370645
      },
      "adresse": "6 QUAI DE LA SEINE 75019 PARIS",
      "codePostal": "75019",
      "commune": "PARIS"
    },
    {
      "id": "2018_00254",
      "annee": 2018,
      "beneficiaire": "ATELIER PARISIEN D'URBANISME",
      "siret": "78423753900043",
      "objet": "Subvention partenariale 2018 - Ville de parisBudget en investissement",
      "montant": 300000,
      "direction": "DU",
      "nature": "Investissement",
      "coordinates": {
        "lat": 48.825563,
        "lon": 2.38353
      },
      "adresse": "5EME ETAGE 15 RUE JEAN-BAPTISTE BERLIER 75013 PARIS",
      "codePostal": "75013",
      "commune": "PARIS"
    },
    {
      "id": "2018_02308",
      "annee": 2018,
      "beneficiaire": "A L 'ADRESSE DU JEU",
      "siret": "52850503500022",
      "objet": "Activités ludiques sur l¿R¿ de Jeux",
      "montant": 300000,
      "direction": "DFPE",
      "nature": "Projet",
      "coordinates": {
        "lat": 48.86571,
        "lon": 2.428714
      },
      "adresse": "3 SQUARE JEAN PIERRE TIMBAUD 93100 MONTREUIL",
      "codePostal": "93100",
      "commune": "MONTREUIL"
    },
    {
      "id": "2018_02816",
      "annee": 2018,
      "beneficiaire": "ASSOCIATION POUR L'ACCUEIL DE TOUS LES ENFANTS",
      "siret": "38448701300037",
      "objet": "Le Sourire du Chat, multi accueil",
      "montant": 299620,
      "direction": "DFPE",
      "nature": "Fonctionnement",
      "coordinates": {
        "lat": 48.851264,
        "lon": 2.393891
      },
      "adresse": "27 AVENUE PHILIPPE-AUGUSTE 75011 PARIS",
      "codePostal": "75011",
      "commune": "PARIS"
    },
    {
      "id": "2018_02815",
      "annee": 2018,
      "beneficiaire": "ASSOCIATION POUR L'ACCUEIL DE TOUS LES ENFANTS",
      "siret": "38448701300037",
      "objet": "La Caverne d'ALI BABA, multi accueil et jardin d'enfants",
      "montant": 295173,
      "direction": "DFPE",
      "nature": "Fonctionnement",
      "coordinates": {
        "lat": 48.851264,
        "lon": 2.393891
      },
      "adresse": "27 AVENUE PHILIPPE-AUGUSTE 75011 PARIS",
      "codePostal": "75011",
      "commune": "PARIS"
    },
    {
      "id": "2018_03193",
      "annee": 2018,
      "beneficiaire": "PARIS INITIATIVE ENTREPRISE",
      "siret": "34802705300043",
      "objet": "Subvention de fonctionnement 2018",
      "montant": 290000,
      "direction": "DAE",
      "nature": "Fonctionnement",
      "coordinates": {
        "lat": 48.878386,
        "lon": 2.315877
      },
      "adresse": "68 BOULEVARD MALESHERBES 75008 PARIS",
      "codePostal": "75008",
      "commune": "PARIS"
    },
    {
      "id": "2018_03463",
      "annee": 2018,
      "beneficiaire": "AURORE (DAWN)",
      "siret": "77568497000384",
      "objet": "MAZAS",
      "montant": 285745,
      "direction": "DASES",
      "nature": "Projet",
      "coordinates": {
        "lat": 48.84261,
        "lon": 2.31629
      },
      "adresse": "SIEGE 31 RUE FALGUIERE 75015 PARIS",
      "codePostal": "75015",
      "commune": "PARIS"
    },
    {
      "id": "2018_07710",
      "annee": 2018,
      "beneficiaire": "LE PICOULET - MISSION POPULAIRE XIÈ",
      "siret": "32582665900022",
      "objet": "Dotations Centres Sociaux-DASES/ SEPLEX",
      "montant": 284622,
      "direction": "DASES",
      "nature": "Fonctionnement",
      "coordinates": {
        "lat": 48.868351,
        "lon": 2.374245
      },
      "adresse": "59 RUE DE LA FONTAINE AU ROI 75011 PARIS",
      "codePostal": "75011",
      "commune": "PARIS"
    },
    {
      "id": "2018_07912",
      "annee": 2018,
      "beneficiaire": "EMMAUS SOLIDARITE",
      "siret": "31723624800017",
      "objet": "Accueil de jour \"Le Kiosque\"",
      "montant": 284000,
      "direction": "DASES",
      "nature": "Fonctionnement",
      "coordinates": {
        "lat": 48.860017,
        "lon": 2.345244
      },
      "adresse": "32 RUE DES BOURDONNAIS 75001 PARIS",
      "codePostal": "75001",
      "commune": "PARIS"
    },
    {
      "id": "2018_03321",
      "annee": 2018,
      "beneficiaire": "ENVOLUDIA",
      "siret": "77573329800183",
      "objet": "Trotte Lapins",
      "montant": 283865,
      "direction": "DFPE",
      "nature": "Fonctionnement",
      "coordinates": {
        "lat": 48.854579,
        "lon": 2.417068
      },
      "adresse": "261 RUE DE PARIS 93100 MONTREUIL",
      "codePostal": "93100",
      "commune": "MONTREUIL"
    },
    {
      "id": "2018_02654",
      "annee": 2018,
      "beneficiaire": "FONDATION OEUVRE DE LA CROIX SAINT-SIMON",
      "siret": "78480968300013",
      "objet": "MA Hippocampe 3 rue Blanche Antoinette 19e",
      "montant": 283526,
      "direction": "DFPE",
      "nature": "Fonctionnement",
      "coordinates": {
        "lat": 48.878208,
        "lon": 2.382497
      },
      "adresse": "35 RUE DU PLATEAU 75019 PARIS",
      "codePostal": "75019",
      "commune": "PARIS"
    },
    {
      "id": "2018_02717",
      "annee": 2018,
      "beneficiaire": "FONDATION LEOPOLD BELLAN",
      "siret": "77567216500013",
      "objet": "Saint Ambroise",
      "montant": 283206,
      "direction": "DFPE",
      "nature": "Fonctionnement",
      "coordinates": {
        "lat": 48.878811,
        "lon": 2.31922
      },
      "adresse": "CENTRE DE FRATERNITE SOCIA 64 RUE DU ROCHER 75008 PARIS",
      "codePostal": "75008",
      "commune": "PARIS"
    },
    {
      "id": "2018_02639",
      "annee": 2018,
      "beneficiaire": "CROIX ROUGE FRANCAISE (NATIONALE)",
      "siret": "77567227221138",
      "objet": "Crèche collective Gabriel De Mun, 41 rue Lucien Sampaix 75010 Paris",
      "montant": 280789,
      "direction": "DFPE",
      "nature": "Fonctionnement",
      "coordinates": {
        "lat": 48.827226,
        "lon": 2.314209
      },
      "adresse": "SITE CROIX ROUGE 98 RUE DIDOT 75014 PARIS",
      "codePostal": "75014",
      "commune": "PARIS"
    },
    {
      "id": "2018_03485",
      "annee": 2018,
      "beneficiaire": "ASSOCIATION OLGA SPITZER",
      "siret": "77565772900437",
      "objet": "AIDE AU FONCTIONNEMENT MAISON DES LIENS FAMILIAUX",
      "montant": 280000,
      "direction": "DFPE",
      "nature": "Projet",
      "coordinates": {
        "lat": 48.872724,
        "lon": 2.352179
      },
      "adresse": "9 COUR DES PETITES ECURIES 75010 PARIS",
      "codePostal": "75010",
      "commune": "PARIS"
    },
    {
      "id": "2018_03670",
      "annee": 2018,
      "beneficiaire": "ASSOCIATION DES CITÉS DU SECOURS CATHOLIQUE",
      "siret": "35330523800175",
      "objet": "Crèche familiale St Martin - 4 Rue de l'Arsenal - 75004 PARIS",
      "montant": 279721,
      "direction": "DFPE",
      "nature": "Fonctionnement",
      "coordinates": {
        "lat": 48.867088,
        "lon": 2.398162
      },
      "adresse": "72 RUE ORFILA 75020 PARIS",
      "codePostal": "75020",
      "commune": "PARIS"
    },
    {
      "id": "2018_03646",
      "annee": 2018,
      "beneficiaire": "AURORE (DAWN)",
      "siret": "77568497000384",
      "objet": "KEPES",
      "montant": 278500,
      "direction": "DASES",
      "nature": "Fonctionnement",
      "coordinates": {
        "lat": 48.84261,
        "lon": 2.31629
      },
      "adresse": "SIEGE 31 RUE FALGUIERE 75015 PARIS",
      "codePostal": "75015",
      "commune": "PARIS"
    },
    {
      "id": "2018_04172",
      "annee": 2018,
      "beneficiaire": "LA CHORBA",
      "siret": "43041135500026",
      "objet": "Subvention de fonctionnement",
      "montant": 276252,
      "direction": "DASES",
      "nature": "Fonctionnement",
      "coordinates": {
        "lat": 48.834044,
        "lon": 2.403323
      },
      "adresse": "87 BOULEVARD PONIATOWSKI 75012 PARIS",
      "codePostal": "75012",
      "commune": "PARIS"
    },
    {
      "id": "2018_02719",
      "annee": 2018,
      "beneficiaire": "FONDATION LEOPOLD BELLAN",
      "siret": "77567216500013",
      "objet": "crèche collective       Crèche du Petit Moulin",
      "montant": 275997,
      "direction": "DFPE",
      "nature": "Fonctionnement",
      "coordinates": {
        "lat": 48.878811,
        "lon": 2.31922
      },
      "adresse": "CENTRE DE FRATERNITE SOCIA 64 RUE DU ROCHER 75008 PARIS",
      "codePostal": "75008",
      "commune": "PARIS"
    },
    {
      "id": "2018_02660",
      "annee": 2018,
      "beneficiaire": "FONDATION OEUVRE DE LA CROIX SAINT-SIMON",
      "siret": "78480968300013",
      "objet": "CC Bethléem 14 rue Jean Bart 6e",
      "montant": 272243,
      "direction": "DFPE",
      "nature": "Fonctionnement",
      "coordinates": {
        "lat": 48.878208,
        "lon": 2.382497
      },
      "adresse": "35 RUE DU PLATEAU 75019 PARIS",
      "codePostal": "75019",
      "commune": "PARIS"
    },
    {
      "id": "2018_03438",
      "annee": 2018,
      "beneficiaire": "THÉÂTRE PARIS 14",
      "siret": "35377356700014",
      "objet": "acompte 2018 - DAC",
      "montant": 271000,
      "direction": "DAC",
      "nature": "Fonctionnement",
      "coordinates": {
        "lat": 48.825896,
        "lon": 2.306846
      },
      "adresse": "20 AVENUE MARC SANGNIER 75014 PARIS",
      "codePostal": "75014",
      "commune": "PARIS"
    },
    {
      "id": "2018_03440",
      "annee": 2018,
      "beneficiaire": "THÉÂTRE PARIS 14",
      "siret": "35377356700014",
      "objet": "subvention de fonctionnement 2018",
      "montant": 271000,
      "direction": "DAC",
      "nature": "Fonctionnement",
      "coordinates": {
        "lat": 48.825896,
        "lon": 2.306846
      },
      "adresse": "20 AVENUE MARC SANGNIER 75014 PARIS",
      "codePostal": "75014",
      "commune": "PARIS"
    },
    {
      "id": "2018_03728",
      "annee": 2018,
      "beneficiaire": "LA MAISON KANGOUROU",
      "siret": "45234009400203",
      "objet": "Crèche Hauteville 32, rue des Petites Écuries Paris (10e)",
      "montant": 270467,
      "direction": "DFPE",
      "nature": "Fonctionnement",
      "coordinates": {
        "lat": 48.869209,
        "lon": 2.360352
      },
      "adresse": "10 RUE DE LANCRY 75010 PARIS",
      "codePostal": "75010",
      "commune": "PARIS"
    },
    {
      "id": "2018_03879",
      "annee": 2018,
      "beneficiaire": "LA MAISON DES BOUT'CHOU",
      "siret": "35118614300175",
      "objet": "Les Couleurs du Temps 29 boulevard Saint-Jacques Paris (14e)",
      "montant": 269661,
      "direction": "DFPE",
      "nature": "Fonctionnement",
      "coordinates": {
        "lat": 48.844295,
        "lon": 2.331113
      },
      "adresse": "12 RUE VAVIN 75006 PARIS",
      "codePostal": "75006",
      "commune": "PARIS"
    },
    {
      "id": "2018_02647",
      "annee": 2018,
      "beneficiaire": "FONDATION CASIP - COJASOR",
      "siret": "42921211100018",
      "objet": "SUBVENTION DE FONCTIONNEMENT 2018 POUR LA HALTE GARDERIE",
      "montant": 269119,
      "direction": "DFPE",
      "nature": "Fonctionnement",
      "coordinates": {
        "lat": 48.869789,
        "lon": 2.3807
      },
      "adresse": "8 RUE DE PALI-KAO 75020 PARIS",
      "codePostal": "75020",
      "commune": "PARIS"
    },
    {
      "id": "2018_03733",
      "annee": 2018,
      "beneficiaire": "LA MAISON KANGOUROU",
      "siret": "45234009400203",
      "objet": "Peupliers 80 rue de la Colonie Paris (13e)",
      "montant": 268283,
      "direction": "DFPE",
      "nature": "Fonctionnement",
      "coordinates": {
        "lat": 48.869209,
        "lon": 2.360352
      },
      "adresse": "10 RUE DE LANCRY 75010 PARIS",
      "codePostal": "75010",
      "commune": "PARIS"
    },
    {
      "id": "2018_02676",
      "annee": 2018,
      "beneficiaire": "FRANCE HORIZON",
      "siret": "77566670400629",
      "objet": "Subvention de fonctionnement 2018 crèche Horizon Clichy 143 avenue de Clichy paris 17ième",
      "montant": 266598,
      "direction": "DFPE",
      "nature": "Fonctionnement",
      "coordinates": {
        "lat": 48.877719,
        "lon": 2.36971
      },
      "adresse": "5 PLACE DU COLONEL FABIEN 75010 PARIS",
      "codePostal": "75010",
      "commune": "PARIS"
    },
    {
      "id": "2018_00091",
      "annee": 2018,
      "beneficiaire": "CARREFOURS POUR L'EMPLOI ARMÉES COLLECTIVITÉS ENTREPRISES",
      "siret": "43294548300035",
      "objet": "FORUMS PARISIENS DE RECRUTEMENT 2018",
      "montant": 265000,
      "direction": "DAE",
      "nature": "Projet",
      "coordinates": {
        "lat": 48.853989,
        "lon": 2.305537
      },
      "adresse": "ECOLE MILITAIRE 1 PLACE JOFFRE 75007 PARIS",
      "codePostal": "75007",
      "commune": "PARIS"
    },
    {
      "id": "2018_03732",
      "annee": 2018,
      "beneficiaire": "LA MAISON KANGOUROU",
      "siret": "45234009400203",
      "objet": "Vincent Auriol 211 bd Vincent Auriol Paris (13e)",
      "montant": 264686,
      "direction": "DFPE",
      "nature": "Fonctionnement",
      "coordinates": {
        "lat": 48.869209,
        "lon": 2.360352
      },
      "adresse": "10 RUE DE LANCRY 75010 PARIS",
      "codePostal": "75010",
      "commune": "PARIS"
    },
    {
      "id": "2018_02495",
      "annee": 2018,
      "beneficiaire": "ABC PUÉRICULTURE",
      "siret": "34482479200032",
      "objet": "quai des ours 159bis quai de valmy 75010 paris",
      "montant": 264275,
      "direction": "DFPE",
      "nature": "Fonctionnement",
      "coordinates": {
        "lat": 48.852284,
        "lon": 2.274995
      },
      "adresse": "9 RUE JEAN DE LA FONTAINE 75016 PARIS",
      "codePostal": "75016",
      "commune": "PARIS"
    },
    {
      "id": "2018_02482",
      "annee": 2018,
      "beneficiaire": "ABC PUÉRICULTURE",
      "siret": "34482479200032",
      "objet": "atelier des ours 23 rue ramponeau 75020 paris",
      "montant": 261150,
      "direction": "DFPE",
      "nature": "Fonctionnement",
      "coordinates": {
        "lat": 48.852284,
        "lon": 2.274995
      },
      "adresse": "9 RUE JEAN DE LA FONTAINE 75016 PARIS",
      "codePostal": "75016",
      "commune": "PARIS"
    },
    {
      "id": "2018_03466",
      "annee": 2018,
      "beneficiaire": "AURORE (DAWN)",
      "siret": "77568497000384",
      "objet": "HALTE FEMMES",
      "montant": 260440,
      "direction": "DASES",
      "nature": "Projet",
      "coordinates": {
        "lat": 48.84261,
        "lon": 2.31629
      },
      "adresse": "SIEGE 31 RUE FALGUIERE 75015 PARIS",
      "codePostal": "75015",
      "commune": "PARIS"
    },
    {
      "id": "2018_02659",
      "annee": 2018,
      "beneficiaire": "FONDATION OEUVRE DE LA CROIX SAINT-SIMON",
      "siret": "78480968300013",
      "objet": "MA Sainte Amélie 106 rue de la Réunion 20e",
      "montant": 258478,
      "direction": "DFPE",
      "nature": "Fonctionnement",
      "coordinates": {
        "lat": 48.878208,
        "lon": 2.382497
      },
      "adresse": "35 RUE DU PLATEAU 75019 PARIS",
      "codePostal": "75019",
      "commune": "PARIS"
    },
    {
      "id": "2018_02645",
      "annee": 2018,
      "beneficiaire": "CROIX ROUGE FRANCAISE (NATIONALE)",
      "siret": "77567227221138",
      "objet": "Crèche collective Ernest May 54 cité des Fleurs 75017 Paris",
      "montant": 258287,
      "direction": "DFPE",
      "nature": "Fonctionnement",
      "coordinates": {
        "lat": 48.827226,
        "lon": 2.314209
      },
      "adresse": "SITE CROIX ROUGE 98 RUE DIDOT 75014 PARIS",
      "codePostal": "75014",
      "commune": "PARIS"
    },
    {
      "id": "2018_02824",
      "annee": 2018,
      "beneficiaire": "CENTRE D'ACTION SOCIALE PROTESTANT DANS LA REGION PARISIENNE",
      "siret": "31873216100035",
      "objet": "ESI MDLR 2018",
      "montant": 254889,
      "direction": "DASES",
      "nature": "Projet",
      "coordinates": {
        "lat": 48.842892,
        "lon": 2.399655
      },
      "adresse": "CASP 20 RUE SANTERRE 75012 PARIS",
      "codePostal": "75012",
      "commune": "PARIS"
    },
    {
      "id": "2018_02667",
      "annee": 2018,
      "beneficiaire": "FONDATION OEUVRE DE LA CROIX SAINT-SIMON",
      "siret": "78480968300013",
      "objet": "MA Le Grand Jardin 10 rue André Theuriet 15e",
      "montant": 254629,
      "direction": "DFPE",
      "nature": "Fonctionnement",
      "coordinates": {
        "lat": 48.878208,
        "lon": 2.382497
      },
      "adresse": "35 RUE DU PLATEAU 75019 PARIS",
      "codePostal": "75019",
      "commune": "PARIS"
    },
    {
      "id": "2018_08133",
      "annee": 2018,
      "beneficiaire": "CENTRE EPINETTES FAMILLE INSERTION ACCUEIL CEFIA",
      "siret": "39999069600037",
      "objet": "Dotations Centres Sociaux-DASES/SEPLEX",
      "montant": 254322,
      "direction": "DASES",
      "nature": "Fonctionnement",
      "coordinates": {
        "lat": 48.895056,
        "lon": 2.317715
      },
      "adresse": "102 RUE DE LA JONQUIERE 75017 PARIS",
      "codePostal": "75017",
      "commune": "PARIS"
    },
    {
      "id": "2018_02728",
      "annee": 2018,
      "beneficiaire": "CRESCENDO",
      "siret": "78481011100350",
      "objet": "structure multi-accueil        Les Lutins de la Plaine",
      "montant": 253266,
      "direction": "DFPE",
      "nature": "Fonctionnement",
      "coordinates": {
        "lat": 48.862478,
        "lon": 2.367835
      },
      "adresse": "102 C RUE AMELOT 75011 PARIS",
      "codePostal": "75011",
      "commune": "PARIS"
    },
    {
      "id": "2018_05812",
      "annee": 2018,
      "beneficiaire": "BOUTIQUE DE GESTION PARIS ILE DE FRANCE",
      "siret": "32250551200044",
      "objet": "Accompagnement des bénéficiaires du RSA.",
      "montant": 251000,
      "direction": "DAE",
      "nature": "Fonctionnement",
      "coordinates": {
        "lat": 48.841839,
        "lon": 2.390309
      },
      "adresse": "36 ALLEE VIVALDI 75012 PARIS",
      "codePostal": "75012",
      "commune": "PARIS"
    },
    {
      "id": "2018_02814",
      "annee": 2018,
      "beneficiaire": "ASSOCIATION POUR L'ACCUEIL DE TOUS LES ENFANTS",
      "siret": "38448701300037",
      "objet": "L'Ecole GULLIVER, jardin d'enfants",
      "montant": 250910,
      "direction": "DFPE",
      "nature": "Fonctionnement",
      "coordinates": {
        "lat": 48.851264,
        "lon": 2.393891
      },
      "adresse": "27 AVENUE PHILIPPE-AUGUSTE 75011 PARIS",
      "codePostal": "75011",
      "commune": "PARIS"
    },
    {
      "id": "2018_05924",
      "annee": 2018,
      "beneficiaire": "ARC - EQUIPES D AMITIE",
      "siret": "77566206700088",
      "objet": "2018 - RELAIS 18 HEBERGEMENT",
      "montant": 250157,
      "direction": "DASES",
      "nature": "Fonctionnement",
      "coordinates": {
        "lat": 48.85171,
        "lon": 2.355609
      },
      "adresse": "8 RUE BUDE 75004 PARIS",
      "codePostal": "75004",
      "commune": "PARIS"
    },
    {
      "id": "2018_02643",
      "annee": 2018,
      "beneficiaire": "CROIX ROUGE FRANCAISE (NATIONALE)",
      "siret": "77567227221138",
      "objet": "Crèche collective Le Petit Fenélon 5 rue Guilleminot 75014 Paris",
      "montant": 250008,
      "direction": "DFPE",
      "nature": "Fonctionnement",
      "coordinates": {
        "lat": 48.827226,
        "lon": 2.314209
      },
      "adresse": "SITE CROIX ROUGE 98 RUE DIDOT 75014 PARIS",
      "codePostal": "75014",
      "commune": "PARIS"
    },
    {
      "id": "2018_05723",
      "annee": 2018,
      "beneficiaire": "FONDATION OEUVRE DE LA CROIX SAINT-SIMON",
      "siret": "78480968300013",
      "objet": "Relais d'Auxilaires Parentales",
      "montant": 250000,
      "direction": "DFPE",
      "nature": "Fonctionnement",
      "coordinates": {
        "lat": 48.878208,
        "lon": 2.382497
      },
      "adresse": "35 RUE DU PLATEAU 75019 PARIS",
      "codePostal": "75019",
      "commune": "PARIS"
    },
    {
      "id": "2018_02419",
      "annee": 2018,
      "beneficiaire": "MISSION LOCALE DE PARIS",
      "siret": "53132862300073",
      "objet": "Complément fonctionnement 2018",
      "montant": 250000,
      "direction": "DAE",
      "nature": "Fonctionnement",
      "coordinates": {
        "lat": 48.889595,
        "lon": 2.363068
      },
      "adresse": "22 RUE PAJOL 75018 PARIS",
      "codePostal": "75018",
      "commune": "PARIS"
    },
    {
      "id": "2018_07024",
      "annee": 2018,
      "beneficiaire": "SALLE SAINT BRUNO",
      "siret": "38873953400021",
      "objet": "BPP 2016 - Rénovation de la Salle Saint Bruno 2018 - Demande n°2",
      "montant": 250000,
      "direction": "DDCT",
      "nature": "Investissement",
      "coordinates": {
        "lat": 48.885789,
        "lon": 2.355302
      },
      "adresse": "9 RUE SAINT-BRUNO 75018 PARIS",
      "codePostal": "75018",
      "commune": "PARIS"
    },
    {
      "id": "2018_02091",
      "annee": 2018,
      "beneficiaire": "CONSEIL D'ARCHITECTURE, D'URBANISME ET DE L'ENVIRONNEMENT DE PARIS",
      "siret": "32564612300027",
      "objet": "Subvention de fonctionnement annuelle - Année 2018",
      "montant": 250000,
      "direction": "DU",
      "nature": "Fonctionnement",
      "coordinates": {
        "lat": 48.847681,
        "lon": 2.370532
      },
      "adresse": "37 AVENUE LEDRU-ROLLIN 75012 PARIS",
      "codePostal": "75012",
      "commune": "PARIS"
    },
    {
      "id": "2018_03036",
      "annee": 2018,
      "beneficiaire": "GROUPE D'OEUVRES SOCIALES DE BELLEVILLE",
      "siret": "77569575200011",
      "objet": "BUDGET PREVISIONNEL PROPOSE 2018CRECHE FRANOISE LAGRANGEGOSB",
      "montant": 247349,
      "direction": "DFPE",
      "nature": "Fonctionnement",
      "coordinates": {
        "lat": 48.875394,
        "lon": 2.391695
      },
      "adresse": "162 RUE DE BELLEVILLE 75020 PARIS",
      "codePostal": "75020",
      "commune": "PARIS"
    },
    {
      "id": "2018_02640",
      "annee": 2018,
      "beneficiaire": "CROIX ROUGE FRANCAISE (NATIONALE)",
      "siret": "77567227221138",
      "objet": "Crèche collective la Butte aux Cailles 42 rue Vandrezanne 75013 Paris",
      "montant": 246955,
      "direction": "DFPE",
      "nature": "Fonctionnement",
      "coordinates": {
        "lat": 48.827226,
        "lon": 2.314209
      },
      "adresse": "SITE CROIX ROUGE 98 RUE DIDOT 75014 PARIS",
      "codePostal": "75014",
      "commune": "PARIS"
    },
    {
      "id": "2018_08617",
      "annee": 2018,
      "beneficiaire": "LA MAISON KANGOUROU",
      "siret": "45234009400203",
      "objet": "FONCTIONNEMENT 2018 TEMPLE ET FROT",
      "montant": 246911,
      "direction": "DFPE",
      "nature": "Fonctionnement",
      "coordinates": {
        "lat": 48.869209,
        "lon": 2.360352
      },
      "adresse": "10 RUE DE LANCRY 75010 PARIS",
      "codePostal": "75010",
      "commune": "PARIS"
    },
    {
      "id": "2018_06002",
      "annee": 2018,
      "beneficiaire": "MISSION LOCALE DE PARIS",
      "siret": "53132862300073",
      "objet": "MLP - Accompagnement renforcé vers l'insertion des jeunes les plus en difficultés.Plateforme Dynam",
      "montant": 244300,
      "direction": "DASES",
      "nature": "Projet",
      "coordinates": {
        "lat": 48.889595,
        "lon": 2.363068
      },
      "adresse": "22 RUE PAJOL 75018 PARIS",
      "codePostal": "75018",
      "commune": "PARIS"
    },
    {
      "id": "2018_03684",
      "annee": 2018,
      "beneficiaire": "GAN MENAHEM",
      "siret": "34830108600024",
      "objet": "Crèche HEIKHAL MENAHEM",
      "montant": 242181,
      "direction": "DFPE",
      "nature": "Fonctionnement",
      "coordinates": {
        "lat": 48.894543,
        "lon": 2.365982
      },
      "adresse": "2 RUE TRISTAN TZARA 75018 PARIS",
      "codePostal": "75018",
      "commune": "PARIS"
    },
    {
      "id": "2018_03736",
      "annee": 2018,
      "beneficiaire": "LA MAISON KANGOUROU",
      "siret": "45234009400203",
      "objet": "Crèche Jacquemont 12, rue Jacquemont Paris (17e)",
      "montant": 242024,
      "direction": "DFPE",
      "nature": "Fonctionnement",
      "coordinates": {
        "lat": 48.869209,
        "lon": 2.360352
      },
      "adresse": "10 RUE DE LANCRY 75010 PARIS",
      "codePostal": "75010",
      "commune": "PARIS"
    },
    {
      "id": "2018_03735",
      "annee": 2018,
      "beneficiaire": "LA MAISON KANGOUROU",
      "siret": "45234009400203",
      "objet": "Crèche Saussure 154 bis, rue de Saussure Paris (17e)",
      "montant": 240322,
      "direction": "DFPE",
      "nature": "Fonctionnement",
      "coordinates": {
        "lat": 48.869209,
        "lon": 2.360352
      },
      "adresse": "10 RUE DE LANCRY 75010 PARIS",
      "codePostal": "75010",
      "commune": "PARIS"
    },
    {
      "id": "2018_08301",
      "annee": 2018,
      "beneficiaire": "RELAIS  MENILMONTANT",
      "siret": "30900121200039",
      "objet": "Dotations Centres Sociaux-DASES/SEPLEX 2018",
      "montant": 239042,
      "direction": "DASES",
      "nature": "Fonctionnement",
      "coordinates": {
        "lat": 48.873289,
        "lon": 2.391256
      },
      "adresse": "70 RUE DES RIGOLES 75020 PARIS",
      "codePostal": "75020",
      "commune": "PARIS"
    },
    {
      "id": "2018_08659",
      "annee": 2018,
      "beneficiaire": "URGENCE JEUNES",
      "siret": "40878410600044",
      "objet": "Accueil et hébergement de jeunes lycéens",
      "montant": 237350,
      "direction": "DASES",
      "nature": "Fonctionnement",
      "coordinates": {
        "lat": 48.83498,
        "lon": 2.302307
      },
      "adresse": "6-8 6 RUE DE CRONSTADT 75015 PARIS",
      "codePostal": "75015",
      "commune": "PARIS"
    },
    {
      "id": "2018_07808",
      "annee": 2018,
      "beneficiaire": "RELAIS 59",
      "siret": "32079817600022",
      "objet": "Dotation 2018  -Centres Sociaux DASES/SEPLEX",
      "montant": 237068,
      "direction": "DASES",
      "nature": "Fonctionnement",
      "coordinates": {
        "lat": 48.845507,
        "lon": 2.375146
      },
      "adresse": "1 RUE HECTOR MALOT 75012 PARIS",
      "codePostal": "75012",
      "commune": "PARIS"
    },
    {
      "id": "2018_03340",
      "annee": 2018,
      "beneficiaire": "HALLE SAINT PIERRE",
      "siret": "33457081900014",
      "objet": "acompte 2018 - DAC",
      "montant": 235000,
      "direction": "DAC",
      "nature": "Fonctionnement",
      "coordinates": {
        "lat": 48.885014,
        "lon": 2.344306
      },
      "adresse": "2 RUE RONSARD 75018 PARIS",
      "codePostal": "75018",
      "commune": "PARIS"
    },
    {
      "id": "2018_07482",
      "annee": 2018,
      "beneficiaire": "AIDES",
      "siret": "34949617400047",
      "objet": "Lutte contre le VIH/SIDA et les hépatitesActions de prévention et de soutien",
      "montant": 235000,
      "direction": "DASES",
      "nature": "Fonctionnement",
      "coordinates": {
        "lat": 48.892039,
        "lon": 2.398566
      },
      "adresse": "TOUR ESSOR 14 RUE SCANDICCI 93500 PANTIN",
      "codePostal": "93500",
      "commune": "PANTIN"
    },
    {
      "id": "2018_08233",
      "annee": 2018,
      "beneficiaire": "LEO LAGRANGE NORD - ILE-DE-FRANCE",
      "siret": "31661982400758",
      "objet": "Dotations centres sociaux DASES/SEPALEX",
      "montant": 233966,
      "direction": "DASES",
      "nature": "Fonctionnement",
      "coordinates": {
        "lat": 49.892262,
        "lon": 2.303174
      },
      "adresse": "27 RUE DE L'AMIRAL COURBET 80000 AMIENS",
      "codePostal": "80000",
      "commune": "AMIENS"
    },
    {
      "id": "2018_02485",
      "annee": 2018,
      "beneficiaire": "ABC PUÉRICULTURE",
      "siret": "34482479200032",
      "objet": "calinours 1 rue charles tellier 75016 paris",
      "montant": 233704,
      "direction": "DFPE",
      "nature": "Fonctionnement",
      "coordinates": {
        "lat": 48.852284,
        "lon": 2.274995
      },
      "adresse": "9 RUE JEAN DE LA FONTAINE 75016 PARIS",
      "codePostal": "75016",
      "commune": "PARIS"
    },
    {
      "id": "2018_06373",
      "annee": 2018,
      "beneficiaire": "OEUVRE DE SECOURS AUX ENFANTS (OSE)",
      "siret": "77568133100176",
      "objet": "Soutien au LAEP et à au dispositif d'AED de l'ESI Bonne Nouvelle",
      "montant": 233000,
      "direction": "DASES",
      "nature": "Projet",
      "coordinates": {
        "lat": 48.871274,
        "lon": 2.374546
      },
      "adresse": "117 RUE DU FAUBOURG DU TEMPLE 75010 PARIS",
      "codePostal": "75010",
      "commune": "PARIS"
    },
    {
      "id": "2018_06330",
      "annee": 2018,
      "beneficiaire": "EMMAUS SOLIDARITE",
      "siret": "31723624800017",
      "objet": "Les Maraudes d'Emmaüs Solidarité",
      "montant": 232892,
      "direction": "DASES",
      "nature": "Fonctionnement",
      "coordinates": {
        "lat": 48.860017,
        "lon": 2.345244
      },
      "adresse": "32 RUE DES BOURDONNAIS 75001 PARIS",
      "codePostal": "75001",
      "commune": "PARIS"
    },
    {
      "id": "2018_02649",
      "annee": 2018,
      "beneficiaire": "FONDATION OEUVRE DE LA CROIX SAINT-SIMON",
      "siret": "78480968300013",
      "objet": "MA Clavel 6bis rue Clavel 19e",
      "montant": 231227,
      "direction": "DFPE",
      "nature": "Fonctionnement",
      "coordinates": {
        "lat": 48.878208,
        "lon": 2.382497
      },
      "adresse": "35 RUE DU PLATEAU 75019 PARIS",
      "codePostal": "75019",
      "commune": "PARIS"
    },
    {
      "id": "2018_02629",
      "annee": 2018,
      "beneficiaire": "AIDE AUX JEUNES HANDICAPES POUR UNE INSERTION REUSSIE AJHIR",
      "siret": "41228534800048",
      "objet": "AIDE AUX JEUNES HANDICAPES POUR UNE INSERTION REUSSIE AJHIR2018",
      "montant": 230693,
      "direction": "DFPE",
      "nature": "Fonctionnement",
      "coordinates": {
        "lat": 48.849385,
        "lon": 2.392892
      },
      "adresse": "8 RUE DES IMMEUBLES INDUSTRIELS 75011 PARIS",
      "codePostal": "75011",
      "commune": "PARIS"
    },