{
  "year": 2024,
  "total": 227501554,
  "count": 388,
  "geolocated": 383,
  "data": [
    {
      "id": "2024_00546",
      "annee": 2024,
      "beneficiaire": "ASSOCIATION D'ACTION SOCIALE EN FAVEUR DES PERSONNELS DE LA VILLE DE PARIS ET DU DEPARTEMENT DE PARIS ASPP",
      "siret": "32385721900097",
      "objet": "Demande de subvention d'exploitation 2024.",
      "montant": 12377000,
      "direction": "DRH",
      "nature": "Fonctionnement",
      "coordinates": {
        "lat": 48.87074,
        "lon": 2.343155
      },
      "adresse": "21 RUE D'UZES 75002 PARIS",
      "codePostal": "75002",
      "commune": "PARIS"
    },
    {
      "id": "2024_03064",
      "annee": 2024,
      "beneficiaire": "THEATRE MUSICAL DE PARIS",
      "siret": "31669616000019",
      "objet": "Acompte 2024 DAC",
      "montant": 9192000,
      "direction": "DAC",
      "nature": "Fonctionnement",
      "coordinates": {
        "lat": 48.857845,
        "lon": 2.345636
      },
      "adresse": "2 RUE EDOUARD COLONNE 75001 PARIS",
      "codePostal": "75001",
      "commune": "PARIS"
    },
    {
      "id": "2024_02790",
      "annee": 2024,
      "beneficiaire": "ABC PUERICULTURE",
      "siret": "34482479200032",
      "objet": "BP24 - 25 EAJE",
      "montant": 7537952,
      "direction": "DFPE",
      "nature": "Fonctionnement",
      "coordinates": {
        "lat": 48.852284,
        "lon": 2.274995
      },
      "adresse": "9 RUE JEAN DE LA FONTAINE 75016 PARIS",
      "codePostal": "75016",
      "commune": "PARIS"
    },
    {
      "id": "2024_03158",
      "annee": 2024,
      "beneficiaire": "THEATRE DE LA VILLE",
      "siret": "77566172100024",
      "objet": "Acompte 2024 DAC",
      "montant": 7290000,
      "direction": "DAC",
      "nature": "Fonctionnement",
      "coordinates": {
        "lat": 48.857346,
        "lon": 2.34779
      },
      "adresse": "ANGL 16 Q DE GESVRES 2 PLACE DU CHATELET 75004 PARIS",
      "codePostal": "75004",
      "commune": "PARIS"
    },
    {
      "id": "2024_05486",
      "annee": 2024,
      "beneficiaire": "ASSOCIATION POUR LA GESTION DES OEUVRES SOCIALES DES PERSONNELS DES ADMINISTRATIONS PARISIENNES AGOSPAP",
      "siret": "32385717700279",
      "objet": "Action social en faveur des agents",
      "montant": 6742586,
      "direction": "DRH",
      "nature": "Fonctionnement",
      "coordinates": {
        "lat": 48.895862,
        "lon": 2.38219
      },
      "adresse": "32 RUE DE CAMBRAI 75019 PARIS",
      "codePostal": "75019",
      "commune": "PARIS"
    },
    {
      "id": "2024_02966",
      "annee": 2024,
      "beneficiaire": "CRESCENDO",
      "siret": "78481011100251",
      "objet": "Budget 2024 Crèches associatives au forfait",
      "montant": 5251300,
      "direction": "DFPE",
      "nature": "Fonctionnement",
      "coordinates": {
        "lat": 48.862478,
        "lon": 2.367835
      },
      "adresse": "102 C RUE AMELOT 75011 PARIS",
      "codePostal": "75011",
      "commune": "PARIS"
    },
    {
      "id": "2024_03182",
      "annee": 2024,
      "beneficiaire": "ATELIER PARISIEN D'URBANISME APUR",
      "siret": "78423753900068",
      "objet": "Subvention fonctionnement 2024",
      "montant": 4969700,
      "direction": "DU",
      "nature": "Fonctionnement",
      "coordinates": {
        "lat": 48.825563,
        "lon": 2.38353
      },
      "adresse": "5EME ETAGE 15 RUE JEAN-BAPTISTE BERLIER 75013 PARIS",
      "codePostal": "75013",
      "commune": "PARIS"
    },
    {
      "id": "2024_10258",
      "annee": 2024,
      "beneficiaire": "ALTERALIA",
      "siret": "35355631900021",
      "objet": "Mise à l'abri jeunes en recours",
      "montant": 4959868,
      "direction": "DSOL",
      "nature": "Fonctionnement",
      "coordinates": {
        "lat": 48.91076,
        "lon": 2.380323
      },
      "adresse": "51 RUE DE LA COMMUNE DE PARIS 93300 AUBERVILLIERS",
      "codePostal": "93300",
      "commune": "AUBERVILLIERS"
    },
    {
      "id": "2025_00559",
      "annee": 2024,
      "beneficiaire": "THEATRE MUSICAL DE PARIS",
      "siret": "31669616000019",
      "objet": "Solde Fonctionnement 2024",
      "montant": 4628000,
      "direction": "DAC",
      "nature": "Fonctionnement",
      "coordinates": {
        "lat": 48.857845,
        "lon": 2.345636
      },
      "adresse": "2 RUE EDOUARD COLONNE 75001 PARIS",
      "codePostal": "75001",
      "commune": "PARIS"
    },
    {
      "id": "2024_04280",
      "annee": 2024,
      "beneficiaire": "LA MAISON KANGOUROU",
      "siret": "45234009400203",
      "objet": "FONCTIONNEMENT 2024",
      "montant": 4553331,
      "direction": "DFPE",
      "nature": "Fonctionnement",
      "coordinates": {
        "lat": 48.869209,
        "lon": 2.360352
      },
      "adresse": "10 RUE DE LANCRY 75010 PARIS",
      "codePostal": "75010",
      "commune": "PARIS"
    },
    {
      "id": "2024_00567",
      "annee": 2024,
      "beneficiaire": "PARIS JE T'AIME, OFFICE DE TOURISME",
      "siret": "77567137300220",
      "objet": "Subvention de fonctionnement de l'Office du tourisme et des Congrès de Paris",
      "montant": 4300000,
      "direction": "DAE",
      "nature": "Indéterminée",
      "coordinates": {
        "lat": 48.863979,
        "lon": 2.355134
      },
      "adresse": "76 RUE BEAUBOURG 75003 PARIS",
      "codePostal": "75003",
      "commune": "PARIS"
    },
    {
      "id": "2024_09883",
      "annee": 2024,
      "beneficiaire": "FORUM DES IMAGES",
      "siret": "33212365200023",
      "objet": "Subvention annuelle de Fonctionnement 2024 - FDI",
      "montant": 3500000,
      "direction": "DAE",
      "nature": "Fonctionnement",
      "coordinates": {
        "lat": 48.86196,
        "lon": 2.346687
      },
      "adresse": "FORUM DES HALLES PORTE SAINT-EUSTACHE 75001 PARIS",
      "codePostal": "75001",
      "commune": "PARIS"
    },
    {
      "id": "2024_00635",
      "annee": 2024,
      "beneficiaire": "MISSION LOCALE DE PARIS",
      "siret": "53132862300149",
      "objet": "Subvention de fonctionnement",
      "montant": 3270000,
      "direction": "DAE",
      "nature": "Fonctionnement",
      "coordinates": {
        "lat": 48.889595,
        "lon": 2.363068
      },
      "adresse": "22 RUE PAJOL 75018 PARIS",
      "codePostal": "75018",
      "commune": "PARIS"
    },
    {
      "id": "2024_10729",
      "annee": 2024,
      "beneficiaire": "EMMAUS SOLIDARITE",
      "siret": "31723624800017",
      "objet": "CHU VALADON",
      "montant": 3095212,
      "direction": "DSOL",
      "nature": "Fonctionnement",
      "coordinates": {
        "lat": 48.860017,
        "lon": 2.345244
      },
      "adresse": "32 RUE DES BOURDONNAIS 75001 PARIS",
      "codePostal": "75001",
      "commune": "PARIS"
    },
    {
      "id": "2024_03319",
      "annee": 2024,
      "beneficiaire": "LA MAISON DES BOUT'CHOU",
      "siret": "35118614300175",
      "objet": "Fonctionnement annuel 2024 LMDB",
      "montant": 3071784,
      "direction": "DFPE",
      "nature": "Fonctionnement",
      "coordinates": {
        "lat": 48.844295,
        "lon": 2.331113
      },
      "adresse": "12 RUE VAVIN 75006 PARIS",
      "codePostal": "75006",
      "commune": "PARIS"
    },
    {
      "id": "2024_05567",
      "annee": 2024,
      "beneficiaire": "THEATRE DE LA VILLE",
      "siret": "77566172100024",
      "objet": "Subvention de fonctionnement 2024",
      "montant": 3000000,
      "direction": "DAC",
      "nature": "Fonctionnement",
      "coordinates": {
        "lat": 48.857346,
        "lon": 2.34779
      },
      "adresse": "ANGL 16 Q DE GESVRES 2 PLACE DU CHATELET 75004 PARIS",
      "codePostal": "75004",
      "commune": "PARIS"
    },
    {
      "id": "2024_03168",
      "annee": 2024,
      "beneficiaire": "ORCHESTRE DE CHAMBRE DE PARIS",
      "siret": "31390568900078",
      "objet": "Acompte 2024 DAC",
      "montant": 2760000,
      "direction": "DAC",
      "nature": "Fonctionnement",
      "coordinates": {
        "lat": 48.889311,
        "lon": 2.393824
      },
      "adresse": "221 AVENUE JEAN JAURES 75019 PARIS",
      "codePostal": "75019",
      "commune": "PARIS"
    },
    {
      "id": "2024_09539",
      "annee": 2024,
      "beneficiaire": "ENFANT PRESENT",
      "siret": "39027802600047",
      "objet": "Fonctionnement 2024 des établissements parisiens",
      "montant": 2202480,
      "direction": "DFPE",
      "nature": "Fonctionnement",
      "coordinates": {
        "lat": 48.86644,
        "lon": 2.405173
      },
      "adresse": "15 RUE DES MONTIBOEUFS 75020 PARIS",
      "codePostal": "75020",
      "commune": "PARIS"
    },
    {
      "id": "2025_00464",
      "annee": 2024,
      "beneficiaire": "ALTERALIA",
      "siret": "35355631900021",
      "objet": "Mise à l'abri jeunes en recours",
      "montant": 2140221,
      "direction": "DSOL",
      "nature": "Fonctionnement",
      "coordinates": {
        "lat": 48.91076,
        "lon": 2.380323
      },
      "adresse": "51 RUE DE LA COMMUNE DE PARIS 93300 AUBERVILLIERS",
      "codePostal": "93300",
      "commune": "AUBERVILLIERS"
    },
    {
      "id": "2024_00989",
      "annee": 2024,
      "beneficiaire": "PAVILLON DE L'ARSENAL CENTRE D'INFORMATION DE DOCUMENTATION ET D'EXPOSITION D'URBANISME ET D'ARCHITECTURE DE PARIS ET DE LA METROPOLE PARISIENNE",
      "siret": "34462055400016",
      "objet": "Subvention d'équilibre 2024",
      "montant": 2074867,
      "direction": "DU",
      "nature": "Fonctionnement",
      "coordinates": {
        "lat": 48.850688,
        "lon": 2.362387
      },
      "adresse": "21 BOULEVARD MORLAND 75004 PARIS",
      "codePostal": "75004",
      "commune": "PARIS"
    },
    {
      "id": "2025_00072",
      "annee": 2024,
      "beneficiaire": "PAVILLON DE L'ARSENAL CENTRE D'INFORMATION DE DOCUMENTATION ET D'EXPOSITION D'URBANISME ET D'ARCHITECTURE DE PARIS ET DE LA METROPOLE PARISIENNE",
      "siret": "34462055400016",
      "objet": "Demande de subvention annuelle de fonctionnement",
      "montant": 2074867,
      "direction": "DU",
      "nature": "Fonctionnement",
      "coordinates": {
        "lat": 48.850688,
        "lon": 2.362387
      },
      "adresse": "21 BOULEVARD MORLAND 75004 PARIS",
      "codePostal": "75004",
      "commune": "PARIS"
    },
    {
      "id": "2024_05485",
      "annee": 2024,
      "beneficiaire": "ASSOCIATION D'ACTION SOCIALE EN FAVEUR DES PERSONNELS DE LA VILLE DE PARIS ET DU DEPARTEMENT DE PARIS ASPP",
      "siret": "32385721900097",
      "objet": "PIM 2024",
      "montant": 2000500,
      "direction": "DRH",
      "nature": "Investissement",
      "coordinates": {
        "lat": 48.87074,
        "lon": 2.343155
      },
      "adresse": "21 RUE D'UZES 75002 PARIS",
      "codePostal": "75002",
      "commune": "PARIS"
    },
    {
      "id": "2024_00755",
      "annee": 2024,
      "beneficiaire": "FORUM DES IMAGES",
      "siret": "33212365200023",
      "objet": "Subvention annuelle de Fonctionnement 2024 - FDI",
      "montant": 2000000,
      "direction": "DAE",
      "nature": "Fonctionnement",
      "coordinates": {
        "lat": 48.86196,
        "lon": 2.346687
      },
      "adresse": "FORUM DES HALLES PORTE SAINT-EUSTACHE 75001 PARIS",
      "codePostal": "75001",
      "commune": "PARIS"
    },
    {
      "id": "2024_02922",
      "annee": 2024,
      "beneficiaire": "ENVOLUDIA",
      "siret": "77573329800332",
      "objet": "Fonctionnement courant de l'association pour 2024",
      "montant": 1987659,
      "direction": "DFPE",
      "nature": "Fonctionnement",
      "coordinates": {
        "lat": 48.854579,
        "lon": 2.417068
      },
      "adresse": "261 RUE DE PARIS 93100 MONTREUIL",
      "codePostal": "93100",
      "commune": "MONTREUIL"
    },
    {
      "id": "2024_02870",
      "annee": 2024,
      "beneficiaire": "CROIX ROUGE FRANCAISE",
      "siret": "77567227221138",
      "objet": "Subvention de fonctionnement 2024 des EAJE",
      "montant": 1985330,
      "direction": "DFPE",
      "nature": "Indéterminée",
      "coordinates": {
        "lat": 48.827226,
        "lon": 2.314209
      },
      "adresse": "SITE CROIX ROUGE 98 RUE DIDOT 75014 PARIS",
      "codePostal": "75014",
      "commune": "PARIS"
    },
    {
      "id": "2024_03199",
      "annee": 2024,
      "beneficiaire": "ASSOCIATION POUR LE SOUTIEN DU THEATRE PRIVE",
      "siret": "78439642600032",
      "objet": "Acompte 2024 DAC",
      "montant": 1873800,
      "direction": "DAC",
      "nature": "Fonctionnement",
      "coordinates": {
        "lat": 48.875465,
        "lon": 2.316343
      },
      "adresse": "48 RUE DE LABORDE 75008 PARIS",
      "codePostal": "75008",
      "commune": "PARIS"
    },
    {
      "id": "2024_04655",
      "annee": 2024,
      "beneficiaire": "PARIS ATELIERS",
      "siret": "31293687500094",
      "objet": "Paris Ateliers - Subvention de fonctionnement 2024",
      "montant": 1745000,
      "direction": "DAC",
      "nature": "Fonctionnement",
      "coordinates": {
        "lat": 48.850017,
        "lon": 2.369748
      },
      "adresse": "7 RUE BISCORNET 75012 PARIS",
      "codePostal": "75012",
      "commune": "PARIS"
    },
    {
      "id": "2024_03170",
      "annee": 2024,
      "beneficiaire": "PARIS ATELIERS",
      "siret": "31293687500094",
      "objet": "Acompte 2024 DAC",
      "montant": 1745000,
      "direction": "DAC",
      "nature": "Fonctionnement",
      "coordinates": {
        "lat": 48.850017,
        "lon": 2.369748
      },
      "adresse": "7 RUE BISCORNET 75012 PARIS",
      "codePostal": "75012",
      "commune": "PARIS"
    },
    {
      "id": "2024_03296",
      "annee": 2024,
      "beneficiaire": "PARIS ET COMPAGNIE",
      "siret": "40895436000041",
      "objet": "Subvention annuelle de fonctionnement Paris and CO 2024",
      "montant": 1700000,
      "direction": "DAE",
      "nature": "Fonctionnement",
      "coordinates": {
        "lat": 48.894069,
        "lon": 2.35423
      },
      "adresse": "48 RUE RENE CLAIR 75018 PARIS",
      "codePostal": "75018",
      "commune": "PARIS"
    },
    {
      "id": "2024_05184",
      "annee": 2024,
      "beneficiaire": "THEATRE MUSICAL DE PARIS",
      "siret": "31669616000019",
      "objet": "Fonctionnement 2024",
      "montant": 1675000,
      "direction": "DAC",
      "nature": "Fonctionnement",
      "coordinates": {
        "lat": 48.857845,
        "lon": 2.345636
      },
      "adresse": "2 RUE EDOUARD COLONNE 75001 PARIS",
      "codePostal": "75001",
      "commune": "PARIS"
    },
    {
      "id": "2024_12657",
      "annee": 2024,
      "beneficiaire": "THEATRE DE LA VILLE",
      "siret": "77566172100024",
      "objet": "Subvention de fonctionnement 2024",
      "montant": 1500000,
      "direction": "DAC",
      "nature": "Fonctionnement",
      "coordinates": {
        "lat": 48.857346,
        "lon": 2.34779
      },
      "adresse": "ANGL 16 Q DE GESVRES 2 PLACE DU CHATELET 75004 PARIS",
      "codePostal": "75004",
      "commune": "PARIS"
    },
    {
      "id": "2024_03019",
      "annee": 2024,
      "beneficiaire": "UNION DEPARTEMENTALE DES ASSOCIATIONS FAMILIALES DE PARIS",
      "siret": "78441204100013",
      "objet": "Etablissement d'accueil du jeune enfant (onze structures)",
      "montant": 1468420,
      "direction": "DFPE",
      "nature": "Fonctionnement",
      "coordinates": {
        "lat": 48.878496,
        "lon": 2.337741
      },
      "adresse": "28 PLACE SAINT-GEORGES 75009 PARIS",
      "codePostal": "75009",
      "commune": "PARIS"
    },
    {
      "id": "2024_03171",
      "annee": 2024,
      "beneficiaire": "MEP - MAISON EUROPEENNE DE LA PHOTOGRAPHIE",
      "siret": "31373068100050",
      "objet": "Acompte 2024 DAC",
      "montant": 1430245,
      "direction": "DAC",
      "nature": "Fonctionnement",
      "coordinates": {
        "lat": 48.854893,
        "lon": 2.359078
      },
      "adresse": "5 RUE DE FOURCY 75004 PARIS",
      "codePostal": "75004",
      "commune": "PARIS"
    },
    {
      "id": "2023_10468",
      "annee": 2024,
      "beneficiaire": "SOCIÉTÉ DE RETRAITES DES CONSEILLERS DE PARIS AU TITRE DE LEUR MANDAT DÉPARTEMENTAL.",
      "siret": "53067796200017",
      "objet": "Subvention 2024 - SDR général - Anciens CP",
      "montant": 1430000,
      "direction": "DDCT",
      "nature": "Indéterminée",
      "coordinates": {
        "lat": 48.856586,
        "lon": 2.353225
      },
      "adresse": "PLACE DE L' HOTEL DE VILLE 5 RUE DE LOBAU 75004 PARIS",
      "codePostal": "75004",
      "commune": "PARIS"
    },
    {
      "id": "2024_06396",
      "annee": 2024,
      "beneficiaire": "ASSOCIATION AURORE",
      "siret": "77568497003594",
      "objet": "Fonctionnement Espace d'accueil et de repos à Porte de la Chapelle",
      "montant": 1411224,
      "direction": "DSP",
      "nature": "Fonctionnement",
      "coordinates": {
        "lat": 48.84261,
        "lon": 2.31629
      },
      "adresse": "SIEGE 31 RUE FALGUIERE 75015 PARIS",
      "codePostal": "75015",
      "commune": "PARIS"
    },
    {
      "id": "2024_05491",
      "annee": 2024,
      "beneficiaire": "AGENCE PARISIENNE DU CLIMAT (APC)",
      "siret": "52800732100011",
      "objet": "CONVENTION PLURIANNUELLE d¿OBJECTIFS , SUBVENTION DE FONCTIONNEMENT",
      "montant": 1392000,
      "direction": "DTEC",
      "nature": "Fonctionnement",
      "coordinates": {
        "lat": 48.833505,
        "lon": 2.386307
      },
      "adresse": "PAVILLON DU LAC PARC DE BERCY 3 RUE FRANCOIS TRUFFAUT 75012 PARIS",
      "codePostal": "75012",
      "commune": "PARIS"
    },
    {
      "id": "2024_02785",
      "annee": 2024,
      "beneficiaire": "ASSOCIATION POUR L'ACCUEIL DE TOUS LES ENFANTS APATE",
      "siret": "38448701300037",
      "objet": "APATE - Budget fonctionnement 2024 EAJE",
      "montant": 1342656,
      "direction": "DFPE",
      "nature": "Fonctionnement",
      "coordinates": {
        "lat": 48.851264,
        "lon": 2.393891
      },
      "adresse": "27 AVENUE PHILIPPE-AUGUSTE 75011 PARIS",
      "codePostal": "75011",
      "commune": "PARIS"
    },
    {
      "id": "2025_00518",
      "annee": 2024,
      "beneficiaire": "ASSOCIATION AURORE",
      "siret": "77568497003594",
      "objet": "Mise à l'abri gymnase Croix Nivert",
      "montant": 1300000,
      "direction": "DSOL",
      "nature": "Fonctionnement",
      "coordinates": {
        "lat": 48.84261,
        "lon": 2.31629
      },
      "adresse": "SIEGE 31 RUE FALGUIERE 75015 PARIS",
      "codePostal": "75015",
      "commune": "PARIS"
    },
    {
      "id": "2024_03163",
      "annee": 2024,
      "beneficiaire": "MUSEE D'ART ET D'HISTOIRE DU JUDAISME",
      "siret": "34843510800017",
      "objet": "Acompte 2024 DAC",
      "montant": 1283283,
      "direction": "DAC",
      "nature": "Fonctionnement",
      "coordinates": {
        "lat": 48.860956,
        "lon": 2.355617
      },
      "adresse": "HOTEL ST AIGNAN 71 RUE DU TEMPLE 75003 PARIS",
      "codePostal": "75003",
      "commune": "PARIS"
    },
    {
      "id": "2025_00478",
      "annee": 2024,
      "beneficiaire": "MEP - MAISON EUROPEENNE DE LA PHOTOGRAPHIE",
      "siret": "31373068100050",
      "objet": "solde sub de fonctionnement 2024",
      "montant": 1280245,
      "direction": "DAC",
      "nature": "Fonctionnement",
      "coordinates": {
        "lat": 48.854893,
        "lon": 2.359078
      },
      "adresse": "5 RUE DE FOURCY 75004 PARIS",
      "codePostal": "75004",
      "commune": "PARIS"
    },
    {
      "id": "2024_10105",
      "annee": 2024,
      "beneficiaire": "ASSOCIATION AURORE",
      "siret": "77568497003594",
      "objet": "Gymnase PARIS",
      "montant": 1250996,
      "direction": "DSOL",
      "nature": "Fonctionnement",
      "coordinates": {
        "lat": 48.84261,
        "lon": 2.31629
      },
      "adresse": "SIEGE 31 RUE FALGUIERE 75015 PARIS",
      "codePostal": "75015",
      "commune": "PARIS"
    },
    {
      "id": "2024_12248",
      "annee": 2024,
      "beneficiaire": "THEATRE DE LA VILLE",
      "siret": "77566172100024",
      "objet": "Subvention de fonctionnement 2024",
      "montant": 1210000,
      "direction": "DAC",
      "nature": "Fonctionnement",
      "coordinates": {
        "lat": 48.857346,
        "lon": 2.34779
      },
      "adresse": "ANGL 16 Q DE GESVRES 2 PLACE DU CHATELET 75004 PARIS",
      "codePostal": "75004",
      "commune": "PARIS"
    },
    {
      "id": "2024_06175",
      "annee": 2024,
      "beneficiaire": "ORCHESTRE DE CHAMBRE DE PARIS",
      "siret": "31390568900078",
      "objet": "Subvention complément de prix 2024",
      "montant": 1200000,
      "direction": "DAC",
      "nature": "Fonctionnement",
      "coordinates": {
        "lat": 48.889311,
        "lon": 2.393824
      },
      "adresse": "221 AVENUE JEAN JAURES 75019 PARIS",
      "codePostal": "75019",
      "commune": "PARIS"
    },
    {
      "id": "2023_10467",
      "annee": 2024,
      "beneficiaire": "SOCIETE DE RETRAITE DES CONSEILLERS MUNICIPAUX DE PARIS",
      "siret": "42200633800012",
      "objet": "Subvention 2024 - SDR municipal - Anciens CP",
      "montant": 1170000,
      "direction": "DDCT",
      "nature": "Indéterminée",
      "coordinates": {
        "lat": 48.85663,
        "lon": 2.351459
      },
      "adresse": "PL HOTEL VILLE ESP LIBERATION 75004 PARIS 04",
      "codePostal": "75004",
      "commune": "PARIS 04"
    },
    {
      "id": "2024_06991",
      "annee": 2024,
      "beneficiaire": "EMMAUS SOLIDARITE",
      "siret": "31723624800017",
      "objet": "Accueil de jour dans les Espaces Solidarité Insertion (ESI)",
      "montant": 1075320,
      "direction": "DSOL",
      "nature": "Fonctionnement",
      "coordinates": {
        "lat": 48.860017,
        "lon": 2.345244
      },
      "adresse": "32 RUE DES BOURDONNAIS 75001 PARIS",
      "codePostal": "75001",
      "commune": "PARIS"
    },
    {
      "id": "2024_12281",
      "annee": 2024,
      "beneficiaire": "PARIS INITIATIVES ENTREPRISES",
      "siret": "34802705300043",
      "objet": "Dotation au fond de prêts Patients",
      "montant": 1000000,
      "direction": "DAE",
      "nature": "Investissement",
      "coordinates": {
        "lat": 48.878386,
        "lon": 2.315877
      },
      "adresse": "68 BOULEVARD MALESHERBES 75008 PARIS",
      "codePostal": "75008",
      "commune": "PARIS"
    },
    {
      "id": "2024_06842",
      "annee": 2024,
      "beneficiaire": "CRECHE GAN MENAHEM",
      "siret": "34830108600024",
      "objet": "GAN MENAHEM - Fonctionnement 2024",
      "montant": 997350,
      "direction": "DFPE",
      "nature": "Fonctionnement",
      "coordinates": {
        "lat": 48.894543,
        "lon": 2.365982
      },
      "adresse": "2 RUE TRISTAN TZARA 75018 PARIS",
      "codePostal": "75018",
      "commune": "PARIS"
    },
    {
      "id": "2024_10739",
      "annee": 2024,
      "beneficiaire": "ASSOCIATION D'ACTION SOCIALE EN FAVEUR DES PERSONNELS DE LA VILLE DE PARIS ET DU DEPARTEMENT DE PARIS ASPP",
      "siret": "32385721900097",
      "objet": "Rénovation des 3 Croq'pouces, Mazas, Bédier et ADF, et de divers équipements de restauration.",
      "montant": 977126,
      "direction": "DRH",
      "nature": "Investissement",
      "coordinates": {
        "lat": 48.87074,
        "lon": 2.343155
      },
      "adresse": "21 RUE D'UZES 75002 PARIS",
      "codePostal": "75002",
      "commune": "PARIS"
    },
    {
      "id": "2024_11435",
      "annee": 2024,
      "beneficiaire": "ASSOCIATION INTERNATIONALE DES MAIRES ET RESPONSABLES DES CAPITALES ET METROPOLES PARTIELLEMENT OU ENTIEREMENT FRANCOPHONES AIMF",
      "siret": "31935615000015",
      "objet": "Subvention 2024 - Investissement",
      "montant": 976500,
      "direction": "DGRI",
      "nature": "Investissement"
    },
    {
      "id": "2024_04252",
      "annee": 2024,
      "beneficiaire": "MUSEE D'ART ET D'HISTOIRE DU JUDAISME",
      "siret": "34843510800017",
      "objet": "Subvention de fonctionnement 2024 pour le musée d'art et d'histoire du JudaIsme",
      "montant": 955522,
      "direction": "DAC",
      "nature": "Fonctionnement",
      "coordinates": {
        "lat": 48.860956,
        "lon": 2.355617
      },
      "adresse": "HOTEL ST AIGNAN 71 RUE DU TEMPLE 75003 PARIS",
      "codePostal": "75003",
      "commune": "PARIS"
    },
    {
      "id": "2024_03160",
      "annee": 2024,
      "beneficiaire": "THEATRE SILVIA MONFORT",
      "siret": "38772311700017",
      "objet": "Acompte 2024 DAC",
      "montant": 879000,
      "direction": "DAC",
      "nature": "Fonctionnement",
      "coordinates": {
        "lat": 48.830303,
        "lon": 2.301819
      },
      "adresse": "106 RUE BRANCION 75015 PARIS",
      "codePostal": "75015",
      "commune": "PARIS"
    },
    {
      "id": "2024_10056",
      "annee": 2024,
      "beneficiaire": "ASSOCIATION POUR L'ACCUEIL DE TOUS LES ENFANTS APATE",
      "siret": "38448701300037",
      "objet": "APATE - Projet Aménagement EAJE inclusif rue Van Loo 75016 PARIS",
      "montant": 877352,
      "direction": "DFPE",
      "nature": "Investissement",
      "coordinates": {
        "lat": 48.851264,
        "lon": 2.393891
      },
      "adresse": "27 AVENUE PHILIPPE-AUGUSTE 75011 PARIS",
      "codePostal": "75011",
      "commune": "PARIS"
    },
    {
      "id": "2024_03805",
      "annee": 2024,
      "beneficiaire": "CENTRE D'ACTION SOCIALE PROTESTANT DANS LA REGION PARISIENNE",
      "siret": "31873216100035",
      "objet": "Prévention Sociale Spécialisée",
      "montant": 845000,
      "direction": "DSOL",
      "nature": "Fonctionnement",
      "coordinates": {
        "lat": 48.842892,
        "lon": 2.399655
      },
      "adresse": "CASP 20 RUE SANTERRE 75012 PARIS",
      "codePostal": "75012",
      "commune": "PARIS"
    },
    {
      "id": "2024_05487",
      "annee": 2024,
      "beneficiaire": "ESPEREM",
      "siret": "77573009600127",
      "objet": "Esperem Creches 2024",
      "montant": 843714,
      "direction": "DFPE",
      "nature": "Fonctionnement",
      "coordinates": {
        "lat": 48.849463,
        "lon": 2.322802
      },
      "adresse": "83 RUE DE SEVRES 75006 PARIS",
      "codePostal": "75006",
      "commune": "PARIS"
    },
    {
      "id": "2024_06998",
      "annee": 2024,
      "beneficiaire": "EMMAUS SOLIDARITE",
      "siret": "31723624800017",
      "objet": "AJ Aboukir",
      "montant": 824308,
      "direction": "DSOL",
      "nature": "Fonctionnement",
      "coordinates": {
        "lat": 48.860017,
        "lon": 2.345244
      },
      "adresse": "32 RUE DES BOURDONNAIS 75001 PARIS",
      "codePostal": "75001",
      "commune": "PARIS"
    },
    {
      "id": "2024_03138",
      "annee": 2024,
      "beneficiaire": "INSTITUT DES CULTURES D'ISLAM (ICI)",
      "siret": "52225251900015",
      "objet": "Acompte 2024 DAC",
      "montant": 810000,
      "direction": "DAC",
      "nature": "Fonctionnement",
      "coordinates": {
        "lat": 48.887787,
        "lon": 2.353435
      },
      "adresse": "19 AU 23 19 RUE LEON 75018 PARIS",
      "codePostal": "75018",
      "commune": "PARIS"
    },
    {
      "id": "2024_06973",
      "annee": 2024,
      "beneficiaire": "FRANCE TERRE D'ASILE FTDA",
      "siret": "78454750700433",
      "objet": "Maraude-Migrants 75",
      "montant": 800000,
      "direction": "DSOL",
      "nature": "Fonctionnement",
      "coordinates": {
        "lat": 48.892128,
        "lon": 2.362175
      },
      "adresse": "24 RUE MARC SEGUIN 75018 PARIS",
      "codePostal": "75018",
      "commune": "PARIS"
    },
    {
      "id": "2024_05511",
      "annee": 2024,
      "beneficiaire": "SOLIHA GRAND PARIS",
      "siret": "78433713100014",
      "objet": "Convention pluriannuelle d'objectifs entre la Ville de Paris et Soliha Grand Paris",
      "montant": 799000,
      "direction": "DLH",
      "nature": "Indéterminée",
      "coordinates": {
        "lat": 48.872786,
        "lon": 2.326256
      },
      "adresse": "PACTE DE PARIS 29 RUE TRONCHET 75008 PARIS",
      "codePostal": "75008",
      "commune": "PARIS"
    },
    {
      "id": "2024_02928",
      "annee": 2024,
      "beneficiaire": "INSTITUT D'ETUDES DE RECHERCHES DE FORMATION EN ACTION SOCIALE",
      "siret": "77566475800049",
      "objet": "Fonctionnement 2024",
      "montant": 776064,
      "direction": "DFPE",
      "nature": "Fonctionnement",
      "coordinates": {
        "lat": 48.840527,
        "lon": 2.302446
      },
      "adresse": "25 A 29 25 RUE DU GENERAL BEURET 75015 PARIS",
      "codePostal": "75015",
      "commune": "PARIS"
    },
    {
      "id": "2024_05710",
      "annee": 2024,
      "beneficiaire": "THEATRE SILVIA MONFORT",
      "siret": "38772311700017",
      "objet": "FONCTIONNEMENT 2024",
      "montant": 756000,
      "direction": "DAC",
      "nature": "Fonctionnement",
      "coordinates": {
        "lat": 48.830303,
        "lon": 2.301819
      },
      "adresse": "106 RUE BRANCION 75015 PARIS",
      "codePostal": "75015",
      "commune": "PARIS"
    },
    {
      "id": "2024_12784",
      "annee": 2024,
      "beneficiaire": "ENSEMBLE PARIS EMPLOI COMPETENCES",
      "siret": "48338140600048",
      "objet": "CONVENTION PLURIANNUELLE D¿OBJECTIFS 2025-2027",
      "montant": 748000,
      "direction": "DAE",
      "nature": "Fonctionnement",
      "coordinates": {
        "lat": 48.885529,
        "lon": 2.390137
      },
      "adresse": "18 RUE GOUBET 75019 PARIS",
      "codePostal": "75019",
      "commune": "PARIS"
    },
    {
      "id": "2024_10843",
      "annee": 2024,
      "beneficiaire": "PARIS ET COMPAGNIE",
      "siret": "40895436000041",
      "objet": "Subvention complémentaire Transformation Paris and Co",
      "montant": 700000,
      "direction": "DAE",
      "nature": "Fonctionnement",
      "coordinates": {
        "lat": 48.894069,
        "lon": 2.35423
      },
      "adresse": "48 RUE RENE CLAIR 75018 PARIS",
      "codePostal": "75018",
      "commune": "PARIS"
    },
    {
      "id": "2024_02848",
      "annee": 2024,
      "beneficiaire": "ASSOCIATION GAN YAEL CRECHE ET JARDIN D'ENFANTS",
      "siret": "31982198900013",
      "objet": "BP 24",
      "montant": 665520,
      "direction": "DFPE",
      "nature": "Fonctionnement",
      "coordinates": {
        "lat": 48.890379,
        "lon": 2.385889
      },
      "adresse": "CRECHE COLLECTIVE 29 RUE DE THIONVILLE 75019 PARIS",
      "codePostal": "75019",
      "commune": "PARIS"
    },
    {
      "id": "2024_05602",
      "annee": 2024,
      "beneficiaire": "LA STATION C",
      "siret": "44361590100016",
      "objet": "Lauréat BPP 2019 - LA STATION C / ACTUxo (n°8513), Archipel Civic Tech Urbain",
      "montant": 650000,
      "direction": "DDCT",
      "nature": "Investissement",
      "coordinates": {
        "lat": 48.822633,
        "lon": 2.361318
      },
      "adresse": "MAISON DE LA VIE ASSOCIATIVE ET CITOYENNE 11 RUE CAILLAUX 75013 PARIS",
      "codePostal": "75013",
      "commune": "PARIS"
    },
    {
      "id": "2024_03443",
      "annee": 2024,
      "beneficiaire": "GROUPE D'OEUVRES SOCIALES DE BELLEVILLE",
      "siret": "77569575200011",
      "objet": "BUDGETS 2024 CRECHES : CFL, CLP et MAB",
      "montant": 647430,
      "direction": "DFPE",
      "nature": "Fonctionnement",
      "coordinates": {
        "lat": 48.875394,
        "lon": 2.391695
      },
      "adresse": "162 RUE DE BELLEVILLE 75020 PARIS",
      "codePostal": "75020",
      "commune": "PARIS"
    },
    {
      "id": "2024_02011",
      "annee": 2024,
      "beneficiaire": "ASSOCIATION INSTITUT D'ETUDES AVANCEES DE PARIS (IEA DE PARIS)",
      "siret": "53005653000039",
      "objet": "Subention de fonctionnement et d'équipement 2024. convention Institut d'Etudes Avancées de Paris",
      "montant": 645750,
      "direction": "DAE",
      "nature": "Indéterminée",
      "coordinates": {
        "lat": 48.851698,
        "lon": 2.359062
      },
      "adresse": "HOTEL DE LAUZUN 17 QUAI D'ANJOU 75004 PARIS",
      "codePostal": "75004",
      "commune": "PARIS"
    },
    {
      "id": "2024_03145",
      "annee": 2024,
      "beneficiaire": "LA PLACE, CENTRE CULTUREL HIPHOP",
      "siret": "80289090500028",
      "objet": "Acompte 2024 DAC",
      "montant": 642000,
      "direction": "DAC",
      "nature": "Fonctionnement",
      "coordinates": {
        "lat": 48.861819,
        "lon": 2.347644
      },
      "adresse": "10 PASSAGE DE LA CANOPEE 75001 PARIS",
      "codePostal": "75001",
      "commune": "PARIS"
    },
    {
      "id": "2024_12261",
      "annee": 2024,
      "beneficiaire": "ORCHESTRE DE CHAMBRE DE PARIS",
      "siret": "31390568900078",
      "objet": "Solde fonctionnement (complément de prix)",
      "montant": 640000,
      "direction": "DAC",
      "nature": "Fonctionnement",
      "coordinates": {
        "lat": 48.889311,
        "lon": 2.393824
      },
      "adresse": "221 AVENUE JEAN JAURES 75019 PARIS",
      "codePostal": "75019",
      "commune": "PARIS"
    },
    {
      "id": "2024_01225",
      "annee": 2024,
      "beneficiaire": "MAISON DU GESTE ET DE L'IMAGE CENTRE DE RECHERCHE ET D'EDUCATION ARTISTIQUE",
      "siret": "32867933700035",
      "objet": "TRAVAUX DE RENOVATION BPP 2021",
      "montant": 630000,
      "direction": "DAC",
      "nature": "Investissement",
      "coordinates": {
        "lat": 48.860539,
        "lon": 2.348593
      },
      "adresse": "42 RUE SAINT-DENIS 75001 PARIS",
      "codePostal": "75001",
      "commune": "PARIS"
    },
    {
      "id": "2024_03151",
      "annee": 2024,
      "beneficiaire": "LES PLATEAUX SAUVAGES",
      "siret": "82349520500010",
      "objet": "Acompte 2024 DAC",
      "montant": 630000,
      "direction": "DAC",
      "nature": "Fonctionnement",
      "coordinates": {
        "lat": 48.867853,
        "lon": 2.389335
      },
      "adresse": "5 RUE DES PLATRIERES 75020 PARIS",
      "codePostal": "75020",
      "commune": "PARIS"
    },
    {
      "id": "2024_03048",
      "annee": 2024,
      "beneficiaire": "ATELIER PARISIEN D'URBANISME APUR",
      "siret": "78423753900068",
      "objet": "Subvention investissement 2024",
      "montant": 600000,
      "direction": "DU",
      "nature": "Investissement",
      "coordinates": {
        "lat": 48.825563,
        "lon": 2.38353
      },
      "adresse": "5EME ETAGE 15 RUE JEAN-BAPTISTE BERLIER 75013 PARIS",
      "codePostal": "75013",
      "commune": "PARIS"
    },
    {
      "id": "2024_07325",
      "annee": 2024,
      "beneficiaire": "CENTRE RÉGIONAL DE COORDINATION DES DÉPISTAGES DES CANCERS D'ILE DE FRANCE \"CRCDC-IDF\"",
      "siret": "84415499700127",
      "objet": "CONVENTION PLURIANNUELLE D'OBJECTIFS",
      "montant": 600000,
      "direction": "DSP",
      "nature": "Fonctionnement",
      "coordinates": {
        "lat": 48.85276,
        "lon": 2.292768
      },
      "adresse": "28 RUE DESAIX 75015 PARIS",
      "codePostal": "75015",
      "commune": "PARIS"
    },
    {
      "id": "2024_06997",
      "annee": 2024,
      "beneficiaire": "EMMAUS SOLIDARITE",
      "siret": "31723624800017",
      "objet": "Maison des réfugiés",
      "montant": 594000,
      "direction": "DSOL",
      "nature": "Fonctionnement",
      "coordinates": {
        "lat": 48.860017,
        "lon": 2.345244
      },
      "adresse": "32 RUE DES BOURDONNAIS 75001 PARIS",
      "codePostal": "75001",
      "commune": "PARIS"
    },
    {
      "id": "2024_06121",
      "annee": 2024,
      "beneficiaire": "ASSOCIATION INTERNATIONALE DES MAIRES ET RESPONSABLES DES CAPITALES ET METROPOLES PARTIELLEMENT OU ENTIEREMENT FRANCOPHONES AIMF",
      "siret": "31935615000015",
      "objet": "Subvention 2024 - Fonctionnement",
      "montant": 583000,
      "direction": "DGRI",
      "nature": "Fonctionnement"
    },
    {
      "id": "2024_03179",
      "annee": 2024,
      "beneficiaire": "MAISON DE LA POESIE",
      "siret": "32590961200054",
      "objet": "Acompte 2024 DAC",
      "montant": 582000,
      "direction": "DAC",
      "nature": "Fonctionnement",
      "coordinates": {
        "lat": 48.86218,
        "lon": 2.351844
      },
      "adresse": "157 RUE SAINT-MARTIN 75003 PARIS",
      "codePostal": "75003",
      "commune": "PARIS"
    },
    {
      "id": "2024_03031",
      "annee": 2024,
      "beneficiaire": "CENTRE ISRAELITE DE MONTMARTRE",
      "siret": "78475659500012",
      "objet": "BUDGET 2024",
      "montant": 577372,
      "direction": "DFPE",
      "nature": "Fonctionnement",
      "coordinates": {
        "lat": 48.887385,
        "lon": 2.344638
      },
      "adresse": "16 RUE LAMARCK 75018 PARIS",
      "codePostal": "75018",
      "commune": "PARIS"
    },
    {
      "id": "2024_03574",
      "annee": 2024,
      "beneficiaire": "EMMAÜS DEFI -FONDATEUR ABBE PIERRE",
      "siret": "49486785600069",
      "objet": "IAE BIAE (DAE)",
      "montant": 573000,
      "direction": "DAE",
      "nature": "Fonctionnement",
      "coordinates": {
        "lat": 48.889535,
        "lon": 2.37191
      },
      "adresse": "6 RUE ARCHEREAU 75019 PARIS",
      "codePostal": "75019",
      "commune": "PARIS"
    },
    {
      "id": "2024_03198",
      "annee": 2024,
      "beneficiaire": "ASSOCIATION PARISIENNE POUR L'ANIMATION CULTURELLE ET SPORTIVE",
      "siret": "78454742400092",
      "objet": "Acompte 2024 DAC",
      "montant": 570000,
      "direction": "DAC",
      "nature": "Fonctionnement",
      "coordinates": {
        "lat": 48.827622,
        "lon": 2.377256
      },
      "adresse": "30 RUE DU CHEVALERET 75013 PARIS",
      "codePostal": "75013",
      "commune": "PARIS"
    },
    {
      "id": "2024_03149",
      "annee": 2024,
      "beneficiaire": "LE THEATRE PARIS-VILLETTE",
      "siret": "43353723000040",
      "objet": "Acompte 2024 DAC",
      "montant": 570000,
      "direction": "DAC",
      "nature": "Fonctionnement",
      "coordinates": {
        "lat": 48.888952,
        "lon": 2.392454
      },
      "adresse": "211 AVENUE JEAN JAURES 75019 PARIS",
      "codePostal": "75019",
      "commune": "PARIS"
    },
    {
      "id": "2024_10723",
      "annee": 2024,
      "beneficiaire": "CRESCENDO",
      "siret": "78481011100251",
      "objet": "Structure multi accueil - Morland 36 quai Henri IV 4e",
      "montant": 567563,
      "direction": "DFPE",
      "nature": "Fonctionnement",
      "coordinates": {
        "lat": 48.862478,
        "lon": 2.367835
      },
      "adresse": "102 C RUE AMELOT 75011 PARIS",
      "codePostal": "75011",
      "commune": "PARIS"
    },
    {
      "id": "2024_03331",
      "annee": 2024,
      "beneficiaire": "ASSOCIATION DEPARTEMENTALE D'INFORMATION SUR LE LOGEMENT DE PARIS.ADIL 75.",
      "siret": "31548372700048",
      "objet": "Information juridique, financière et fiscale sur le logement aux Parisiens",
      "montant": 556000,
      "direction": "DLH",
      "nature": "Fonctionnement",
      "coordinates": {
        "lat": 48.84092,
        "lon": 2.326148
      },
      "adresse": "46 B BOULEVARD EDGAR QUINET 75014 PARIS",
      "codePostal": "75014",
      "commune": "PARIS"
    },
    {
      "id": "2024_09697",
      "annee": 2024,
      "beneficiaire": "GABY SOURIRE",
      "siret": "47978923200010",
      "objet": "LAUREAT DU BP 2023 : UN ESPACE DEDIE A LA CREATION ARTISTIQUE A LA GOUTTE D'OR",
      "montant": 550000,
      "direction": "DDCT",
      "nature": "Investissement",
      "coordinates": {
        "lat": 48.88631,
        "lon": 2.354584
      },
      "adresse": "12 RUE SAINT-MATHIEU 75018 PARIS",
      "codePostal": "75018",
      "commune": "PARIS"
    },
    {
      "id": "2024_06699",
      "annee": 2024,
      "beneficiaire": "INSTITUT DES CULTURES D'ISLAM (ICI)",
      "siret": "52225251900015",
      "objet": "Demande de subvention de fonctionnement",
      "montant": 550000,
      "direction": "DAC",
      "nature": "Fonctionnement",
      "coordinates": {
        "lat": 48.887787,
        "lon": 2.353435
      },
      "adresse": "19 AU 23 19 RUE LEON 75018 PARIS",
      "codePostal": "75018",
      "commune": "PARIS"
    },
    {
      "id": "2024_09871",
      "annee": 2024,
      "beneficiaire": "RESOQUARTIER",
      "siret": "53466446100025",
      "objet": "Lauréat du BP2023 : Un restaurant populaire, coeur de l¿action solidaire portée par les habitant.e.s",
      "montant": 550000,
      "direction": "DDCT",
      "nature": "Investissement",
      "coordinates": {
        "lat": 48.82958,
        "lon": 2.371744
      },
      "adresse": "RUE DE DOMREMY 75013 PARIS",
      "codePostal": "75013",
      "commune": "PARIS"
    },
    {
      "id": "2024_12625",
      "annee": 2024,
      "beneficiaire": "ABC PUERICULTURE",
      "siret": "34482479200032",
      "objet": "Complément subvention",
      "montant": 512160,
      "direction": "DFPE",
      "nature": "Fonctionnement",
      "coordinates": {
        "lat": 48.852284,
        "lon": 2.274995
      },
      "adresse": "9 RUE JEAN DE LA FONTAINE 75016 PARIS",
      "codePostal": "75016",
      "commune": "PARIS"
    },
    {
      "id": "2024_06273",
      "annee": 2024,
      "beneficiaire": "AGRIPARIS SEINE",
      "siret": "92392391600012",
      "objet": "AgriParis Seine 2024",
      "montant": 500000,
      "direction": "DEVE",
      "nature": "Fonctionnement"
    },
    {
      "id": "2024_10835",
      "annee": 2024,
      "beneficiaire": "EMMAÜS DEFI -FONDATEUR ABBE PIERRE",
      "siret": "49486785600069",
      "objet": "Extension du projet d¿installation du Brouillard d¿Eau",
      "montant": 500000,
      "direction": "DAE",
      "nature": "Investissement",
      "coordinates": {
        "lat": 48.889535,
        "lon": 2.37191
      },
      "adresse": "6 RUE ARCHEREAU 75019 PARIS",
      "codePostal": "75019",
      "commune": "PARIS"
    },
    {
      "id": "2024_11114",
      "annee": 2024,
      "beneficiaire": "THEATRE DE LA VILLE",
      "siret": "77566172100024",
      "objet": "Place des Théâtres 2024",
      "montant": 500000,
      "direction": "DAC",
      "nature": "Fonctionnement",
      "coordinates": {
        "lat": 48.857346,
        "lon": 2.34779
      },
      "adresse": "ANGL 16 Q DE GESVRES 2 PLACE DU CHATELET 75004 PARIS",
      "codePostal": "75004",
      "commune": "PARIS"
    },
    {
      "id": "2024_09297",
      "annee": 2024,
      "beneficiaire": "ENSEMBLE PARIS EMPLOI COMPETENCES",
      "siret": "48338140600048",
      "objet": "Complément subvention CPO 2024",
      "montant": 500000,
      "direction": "DAE",
      "nature": "Fonctionnement",
      "coordinates": {
        "lat": 48.885529,
        "lon": 2.390137
      },
      "adresse": "18 RUE GOUBET 75019 PARIS",
      "codePostal": "75019",
      "commune": "PARIS"
    },
    {
      "id": "2024_04469",
      "annee": 2024,
      "beneficiaire": "PARIS INITIATIVES ENTREPRISES",
      "siret": "34802705300043",
      "objet": "Dotation au fond de prêts Patients",
      "montant": 500000,
      "direction": "DAE",
      "nature": "Investissement",
      "coordinates": {
        "lat": 48.878386,
        "lon": 2.315877
      },
      "adresse": "68 BOULEVARD MALESHERBES 75008 PARIS",
      "codePostal": "75008",
      "commune": "PARIS"
    },
    {
      "id": "2024_04127",
      "annee": 2024,
      "beneficiaire": "CRECHE LAIQUE QUARTIER SAINT FARGEAU",
      "siret": "78480818000011",
      "objet": "creche collective",
      "montant": 492246,
      "direction": "DFPE",
      "nature": "Fonctionnement",
      "coordinates": {
        "lat": 48.873717,
        "lon": 2.399092
      },
      "adresse": "33 RUE DU TELEGRAPHE 75020 PARIS",
      "codePostal": "75020",
      "commune": "PARIS"
    },
    {
      "id": "2024_03194",
      "annee": 2024,
      "beneficiaire": "ASSOCIATION DU FESTIVAL D'AUTOMNE A PARIS",
      "siret": "78439645900041",
      "objet": "Acompte 2024 DAC",
      "montant": 485520,
      "direction": "DAC",
      "nature": "Fonctionnement",
      "coordinates": {
        "lat": 48.861188,
        "lon": 2.340468
      },
      "adresse": "156 RUE DE RIVOLI 75001 PARIS",
      "codePostal": "75001",
      "commune": "PARIS"
    },
    {
      "id": "2024_03123",
      "annee": 2024,
      "beneficiaire": "L'ETE PARISIEN",
      "siret": "37978422600050",
      "objet": "Acompte 2024 DAC",
      "montant": 471000,
      "direction": "DAC",
      "nature": "Fonctionnement",
      "coordinates": {
        "lat": 48.830303,
        "lon": 2.301819
      },
      "adresse": "106 RUE BRANCION 75015 PARIS",
      "codePostal": "75015",
      "commune": "PARIS"
    },
    {
      "id": "2024_05625",
      "annee": 2024,
      "beneficiaire": "PARIS UNIVERSITE CLUB",
      "siret": "78425962400020",
      "objet": "Convention d'objectif d'aide au fonctionnement entre la ville de Paris et le Paris Université Club",
      "montant": 460000,
      "direction": "DJS",
      "nature": "Fonctionnement",
      "coordinates": {
        "lat": 48.818109,
        "lon": 2.344456
      },
      "adresse": "STADE CHARLETY 17 AVENUE PIERRE DE COUBERTIN 75013 PARIS",
      "codePostal": "75013",
      "commune": "PARIS"
    },
    {
      "id": "2024_00738",
      "annee": 2024,
      "beneficiaire": "ISSY PARIS HAND",
      "siret": "42466196500022",
      "objet": "Paris 92 Handball féminin professionnel",
      "montant": 450000,
      "direction": "DJS",
      "nature": "Fonctionnement",
      "coordinates": {
        "lat": 48.825497,
        "lon": 2.264795
      },
      "adresse": "5 AVENUE JEAN BOUIN 92130 ISSY-LES-MOULINEAUX",
      "codePostal": "92130",
      "commune": "ISSY-LES-MOULINEAUX"
    },
    {
      "id": "2024_03155",
      "annee": 2024,
      "beneficiaire": "THEATRE PARIS 14",
      "siret": "35377356700014",
      "objet": "Acompte 2024 DAC - subvention de fonctionnement",
      "montant": 436200,
      "direction": "DAC",
      "nature": "Fonctionnement",
      "coordinates": {
        "lat": 48.825896,
        "lon": 2.306846
      },
      "adresse": "20 AVENUE MARC SANGNIER 75014 PARIS",
      "codePostal": "75014",
      "commune": "PARIS"
    },
    {
      "id": "2024_06745",
      "annee": 2024,
      "beneficiaire": "ASSOCIATION PARISIENNE POUR L'ANIMATION CULTURELLE ET SPORTIVE",
      "siret": "78454742400092",
      "objet": "SUBVENTION DE FONCTIONNEMENT 2024 - THEATRE 13",
      "montant": 430000,
      "direction": "DAC",
      "nature": "Fonctionnement",
      "coordinates": {
        "lat": 48.827622,
        "lon": 2.377256
      },
      "adresse": "30 RUE DU CHEVALERET 75013 PARIS",
      "codePostal": "75013",
      "commune": "PARIS"
    },
    {
      "id": "2024_05561",
      "annee": 2024,
      "beneficiaire": "LA PLACE, CENTRE CULTUREL HIPHOP",
      "siret": "80289090500028",
      "objet": "Fonctionnement 2024",
      "montant": 428000,
      "direction": "DAC",
      "nature": "Fonctionnement",
      "coordinates": {
        "lat": 48.861819,
        "lon": 2.347644
      },
      "adresse": "10 PASSAGE DE LA CANOPEE 75001 PARIS",
      "codePostal": "75001",
      "commune": "PARIS"
    },
    {
      "id": "2024_10230",
      "annee": 2024,
      "beneficiaire": "ASSOCIATION AURORE",
      "siret": "77568497003594",
      "objet": "Dispositif thérapeutique innovant René Coty (invest)",
      "montant": 420000,
      "direction": "DSP",
      "nature": "Investissement",
      "coordinates": {
        "lat": 48.84261,
        "lon": 2.31629
      },
      "adresse": "SIEGE 31 RUE FALGUIERE 75015 PARIS",
      "codePostal": "75015",
      "commune": "PARIS"
    },
    {
      "id": "2024_07743",
      "annee": 2024,
      "beneficiaire": "LES PLATEAUX SAUVAGES",
      "siret": "82349520500010",
      "objet": "FONCTIONNEMENT 2024 LES PLATEAUX SAUVAGES",
      "montant": 420000,
      "direction": "DAC",
      "nature": "Fonctionnement",
      "coordinates": {
        "lat": 48.867853,
        "lon": 2.389335
      },
      "adresse": "5 RUE DES PLATRIERES 75020 PARIS",
      "codePostal": "75020",
      "commune": "PARIS"
    },
    {
      "id": "2024_05525",
      "annee": 2024,
      "beneficiaire": "LA COMPAGNIE DU 20E",
      "siret": "92027539300014",
      "objet": "Budget participatif 2023: des équipements pour un territoire Zéro Chomeur dans le 20e!",
      "montant": 420000,
      "direction": "DAE",
      "nature": "Investissement",
      "coordinates": {
        "lat": 48.876655,
        "lon": 2.41195
      },
      "adresse": "60 RUE DES FRERES FLAVIEN 75020 PARIS",
      "codePostal": "75020",
      "commune": "PARIS"
    },
    {
      "id": "2024_02740",
      "annee": 2024,
      "beneficiaire": "FRANCE HORIZON",
      "siret": "77566670400975",
      "objet": "Subvention de fonctionnement 2024 Horizon Clichy 143 avenue de Clichy",
      "montant": 413550,
      "direction": "DFPE",
      "nature": "Fonctionnement",
      "coordinates": {
        "lat": 48.877719,
        "lon": 2.36971
      },
      "adresse": "5 PLACE DU COLONEL FABIEN 75010 PARIS",
      "codePostal": "75010",
      "commune": "PARIS"
    },
    {
      "id": "2024_12681",
      "annee": 2024,
      "beneficiaire": "CRESCENDO",
      "siret": "78481011100251",
      "objet": "complément subvention Budget 2024 Crèches associatives au forfait",
      "montant": 407885,
      "direction": "DFPE",
      "nature": "Fonctionnement",
      "coordinates": {
        "lat": 48.862478,
        "lon": 2.367835
      },
      "adresse": "102 C RUE AMELOT 75011 PARIS",
      "codePostal": "75011",
      "commune": "PARIS"
    },
    {
      "id": "2024_00532",
      "annee": 2024,
      "beneficiaire": "ECOLE DE LA 2E CHANCE DE PARIS \"E2C PARIS\"",
      "siret": "49300518500050",
      "objet": "Ecole de la deuxième chance de Paris",
      "montant": 400000,
      "direction": "DAE",
      "nature": "Indéterminée",
      "coordinates": {
        "lat": 48.887541,
        "lon": 2.366997
      },
      "adresse": "47 RUE D'AUBERVILLIERS 75018 PARIS",
      "codePostal": "75018",
      "commune": "PARIS"
    },
    {
      "id": "2024_09282",
      "annee": 2024,
      "beneficiaire": "LE COLLECTIF DES VOUTES",
      "siret": "92379834200013",
      "objet": "Lauréat du BP2023 : rénover les voutes de l'ourcq (DDCT)",
      "montant": 400000,
      "direction": "DDCT",
      "nature": "Investissement",
      "coordinates": {
        "lat": 48.887409,
        "lon": 2.379229
      },
      "adresse": "CO CAFEZOIDE 92 QUAI DE LA LOIRE 75019 PARIS",
      "codePostal": "75019",
      "commune": "PARIS"
    },
    {
      "id": "2023_10628",
      "annee": 2024,
      "beneficiaire": "PARIS INITIATIVES ENTREPRISES",
      "siret": "34802705300043",
      "objet": "Dotation au fond de prêts Patients",
      "montant": 390500,
      "direction": "DAE",
      "nature": "Investissement",
      "coordinates": {
        "lat": 48.878386,
        "lon": 2.315877
      },
      "adresse": "68 BOULEVARD MALESHERBES 75008 PARIS",
      "codePostal": "75008",
      "commune": "PARIS"
    },
    {
      "id": "2024_04668",
      "annee": 2024,
      "beneficiaire": "MAISON DE LA POESIE",
      "siret": "32590961200054",
      "objet": "Subvention de fonctionnement 2024",
      "montant": 388000,
      "direction": "DAC",
      "nature": "Fonctionnement",
      "coordinates": {
        "lat": 48.86218,
        "lon": 2.351844
      },
      "adresse": "157 RUE SAINT-MARTIN 75003 PARIS",
      "codePostal": "75003",
      "commune": "PARIS"
    },
    {
      "id": "2024_06506",
      "annee": 2024,
      "beneficiaire": "ASSOCIATION DES PARENTS D'ELEVES DES JARDINS D'ENFANTS FRANCO ALLEMANDS AJEFA",
      "siret": "30098452300013",
      "objet": "Budget Prévisionnel 2024",
      "montant": 385920,
      "direction": "DFPE",
      "nature": "Indéterminée",
      "coordinates": {
        "lat": 48.874626,
        "lon": 2.359019
      },
      "adresse": "134 RUE DU FAUBOURG SAINT-MARTIN 75010 PARIS",
      "codePostal": "75010",
      "commune": "PARIS"
    },
    {
      "id": "2024_04413",
      "annee": 2024,
      "beneficiaire": "ASSOCIATION INTERDEPARTEMENTALE POUR LA GESTION DU RESEAU AUTOMATIQUE DE SURVEILLANCE DE LA POLLUTION ATMOSPHERIQUE ET D'ALERTE EN REGION D'ILE DE FRANCE AIRPARIF",
      "siret": "31646523600032",
      "objet": "Demande de Subvention de Fonctionnement 2024 pour AIRPARIF, surveillance de la qualité de l'air",
      "montant": 383520,
      "direction": "DTEC",
      "nature": "Fonctionnement",
      "coordinates": {
        "lat": 48.848962,
        "lon": 2.36528
      },
      "adresse": "7 RUE CRILLON 75004 PARIS",
      "codePostal": "75004",
      "commune": "PARIS"
    },
    {
      "id": "2024_03150",
      "annee": 2024,
      "beneficiaire": "MAISON DU GESTE ET DE L'IMAGE CENTRE DE RECHERCHE ET D'EDUCATION ARTISTIQUE",
      "siret": "32867933700035",
      "objet": "Acompte 2024 DAC",
      "montant": 380000,
      "direction": "DAC",
      "nature": "Fonctionnement",
      "coordinates": {
        "lat": 48.860539,
        "lon": 2.348593
      },
      "adresse": "42 RUE SAINT-DENIS 75001 PARIS",
      "codePostal": "75001",
      "commune": "PARIS"
    },
    {
      "id": "2024_07465",
      "annee": 2024,
      "beneficiaire": "LE THEATRE PARIS-VILLETTE",
      "siret": "43353723000040",
      "objet": "Fonctionnement 2024",
      "montant": 380000,
      "direction": "DAC",
      "nature": "Fonctionnement",
      "coordinates": {
        "lat": 48.888952,
        "lon": 2.392454
      },
      "adresse": "211 AVENUE JEAN JAURES 75019 PARIS",
      "codePostal": "75019",
      "commune": "PARIS"
    },
    {
      "id": "2024_01458",
      "annee": 2024,
      "beneficiaire": "MAISON DU GESTE ET DE L'IMAGE CENTRE DE RECHERCHE ET D'EDUCATION ARTISTIQUE",
      "siret": "32867933700035",
      "objet": "DEMANDE DE SUBVENTION DE FONCTIONNEMENT 2024",
      "montant": 380000,
      "direction": "DAC",
      "nature": "Fonctionnement",
      "coordinates": {
        "lat": 48.860539,
        "lon": 2.348593
      },
      "adresse": "42 RUE SAINT-DENIS 75001 PARIS",
      "codePostal": "75001",
      "commune": "PARIS"
    },
    {
      "id": "2025_03009",
      "annee": 2024,
      "beneficiaire": "EMMAUS SOLIDARITE",
      "siret": "31723624800017",
      "objet": "CRISTINO GARCIA",
      "montant": 376000,
      "direction": "DSOL",
      "nature": "Investissement",
      "coordinates": {
        "lat": 48.860017,
        "lon": 2.345244
      },
      "adresse": "32 RUE DES BOURDONNAIS 75001 PARIS",
      "codePostal": "75001",
      "commune": "PARIS"
    },
    {
      "id": "2024_12253",
      "annee": 2024,
      "beneficiaire": "ASSOCIATION POUR L'ACCUEIL DE TOUS LES ENFANTS APATE",
      "siret": "38448701300037",
      "objet": "Restructuration de la Crèche Mowgli",
      "montant": 372400,
      "direction": "DFPE",
      "nature": "Investissement",
      "coordinates": {
        "lat": 48.851264,
        "lon": 2.393891
      },
      "adresse": "27 AVENUE PHILIPPE-AUGUSTE 75011 PARIS",
      "codePostal": "75011",
      "commune": "PARIS"
    },
    {
      "id": "2024_04009",
      "annee": 2024,
      "beneficiaire": "PARIS INITIATIVES ENTREPRISES",
      "siret": "34802705300043",
      "objet": "Subvention de fonctionnement 2024",
      "montant": 370000,
      "direction": "DAE",
      "nature": "Fonctionnement",
      "coordinates": {
        "lat": 48.878386,
        "lon": 2.315877
      },
      "adresse": "68 BOULEVARD MALESHERBES 75008 PARIS",
      "codePostal": "75008",
      "commune": "PARIS"
    },
    {
      "id": "2024_04407",
      "annee": 2024,
      "beneficiaire": "ASSOCIATION GAN YOSSEF CRECHE ET JARDIN D'ENFANTS",
      "siret": "33973557300026",
      "objet": "BP 2024 ASSOCIATION GAN YOSSEF",
      "montant": 351633,
      "direction": "DFPE",
      "nature": "Fonctionnement",
      "coordinates": {
        "lat": 48.869928,
        "lon": 2.388881
      },
      "adresse": "15-17 15 RUE DE LA MARE 75020 PARIS",
      "codePostal": "75020",
      "commune": "PARIS"
    },
    {
      "id": "2024_04582",
      "annee": 2024,
      "beneficiaire": "COALLIA",
      "siret": "77568030900611",
      "objet": "LIMA Ville",
      "montant": 350232,
      "direction": "DSOL",
      "nature": "Fonctionnement",
      "coordinates": {
        "lat": 48.847248,
        "lon": 2.389037
      },
      "adresse": "16 AU 18 16 COUR SAINT-ELOI 75012 PARIS 12",
      "codePostal": "75012",
      "commune": "PARIS 12"
    },
    {
      "id": "2024_03543",
      "annee": 2024,
      "beneficiaire": "PARCOURS D'INSERTION FLES DE PARIS",
      "siret": "45057704400024",
      "objet": "Accompagnement des SIAE à la professionnalisation de leurs salariés en insertion",
      "montant": 350000,
      "direction": "DAE",
      "nature": "Fonctionnement",
      "coordinates": {
        "lat": 48.866402,
        "lon": 2.363412
      },
      "adresse": "19 RUE BERANGER 75003 PARIS",
      "codePostal": "75003",
      "commune": "PARIS"
    },
    {
      "id": "2024_09442",
      "annee": 2024,
      "beneficiaire": "MISSION LOCALE DE PARIS",
      "siret": "53132862300149",
      "objet": "Subvention de fonctionnement 2024 : accroissement d'activité",
      "montant": 350000,
      "direction": "DAE",
      "nature": "Fonctionnement",
      "coordinates": {
        "lat": 48.889595,
        "lon": 2.363068
      },
      "adresse": "22 RUE PAJOL 75018 PARIS",
      "codePostal": "75018",
      "commune": "PARIS"
    },
    {
      "id": "2024_03613",
      "annee": 2024,
      "beneficiaire": "OEUVRES DE LA MIE DE PAIN",
      "siret": "77568219800053",
      "objet": "Subvention de fonctionnement de l'Arche d'Avenirs, l'espace solidarité insertion de La Mie de Pain",
      "montant": 350000,
      "direction": "DSOL",
      "nature": "Indéterminée",
      "coordinates": {
        "lat": 48.825047,
        "lon": 2.351624
      },
      "adresse": "18 RUE CHARLES FOURIER 75013 PARIS",
      "codePostal": "75013",
      "commune": "PARIS"
    },
    {
      "id": "2024_07685",
      "annee": 2024,
      "beneficiaire": "LES CANAUX",
      "siret": "82868623800019",
      "objet": "Subvention de fonctionnement 2024",
      "montant": 340000,
      "direction": "DAE",
      "nature": "Fonctionnement",
      "coordinates": {
        "lat": 48.884656,
        "lon": 2.370645
      },
      "adresse": "6 QUAI DE LA SEINE 75019 PARIS",
      "codePostal": "75019",
      "commune": "PARIS"
    },
    {
      "id": "2024_12267",
      "annee": 2024,
      "beneficiaire": "INITIATIVES DE DÉVELOPPEMENT LOCAL PARIS10",
      "siret": "91378888100013",
      "objet": "G- SUIV 002669 - Des équipements mobiles de solidarité avec les plus fragiles / Cuisine mobile et l",
      "montant": 334184,
      "direction": "DDCT",
      "nature": "Investissement",
      "coordinates": {
        "lat": 48.871758,
        "lon": 2.372477
      },
      "adresse": "AIRES 10 2 RUE DU BUISSON SAINT-LOUIS 75010 PARIS",
      "codePostal": "75010",
      "commune": "PARIS"
    },
    {
      "id": "2024_06999",
      "annee": 2024,
      "beneficiaire": "EMMAUS SOLIDARITE",
      "siret": "31723624800017",
      "objet": "CHU MIGRANTS IVRY",
      "montant": 333418,
      "direction": "DSOL",
      "nature": "Fonctionnement",
      "coordinates": {
        "lat": 48.860017,
        "lon": 2.345244
      },
      "adresse": "32 RUE DES BOURDONNAIS 75001 PARIS",
      "codePostal": "75001",
      "commune": "PARIS"
    },
    {
      "id": "2024_06010",
      "annee": 2024,
      "beneficiaire": "ASSOCIATION DU FESTIVAL D'AUTOMNE A PARIS",
      "siret": "78439645900041",
      "objet": "Festival d'Automne à Paris - édition 2024",
      "montant": 323680,
      "direction": "DAC",
      "nature": "Fonctionnement",
      "coordinates": {
        "lat": 48.861188,
        "lon": 2.340468
      },
      "adresse": "156 RUE DE RIVOLI 75001 PARIS",
      "codePostal": "75001",
      "commune": "PARIS"
    },
    {
      "id": "2024_03103",
      "annee": 2024,
      "beneficiaire": "L'ETE PARISIEN",
      "siret": "37978422600050",
      "objet": "Festival Paris l'Eté",
      "montant": 314000,
      "direction": "DAC",
      "nature": "Fonctionnement",
      "coordinates": {
        "lat": 48.830303,
        "lon": 2.301819
      },
      "adresse": "106 RUE BRANCION 75015 PARIS",
      "codePostal": "75015",
      "commune": "PARIS"
    },
    {
      "id": "2024_06993",
      "annee": 2024,
      "beneficiaire": "EMMAUS SOLIDARITE",
      "siret": "31723624800017",
      "objet": "Le Kiosque",
      "montant": 313601,
      "direction": "DSOL",
      "nature": "Fonctionnement",
      "coordinates": {
        "lat": 48.860017,
        "lon": 2.345244
      },
      "adresse": "32 RUE DES BOURDONNAIS 75001 PARIS",
      "codePostal": "75001",
      "commune": "PARIS"
    },
    {
      "id": "2024_10035",
      "annee": 2024,
      "beneficiaire": "ASSOCIATION INTERDEPARTEMENTALE POUR LA GESTION DU RESEAU AUTOMATIQUE DE SURVEILLANCE DE LA POLLUTION ATMOSPHERIQUE ET D'ALERTE EN REGION D'ILE DE FRANCE AIRPARIF",
      "siret": "31646523600032",
      "objet": "OBSERVATOIRE DE LA QUALITE DE L¿AIR DANS LE CADRE DE L¿EVOLUTION DU BOULEVARD PERIPHERIQUE",
      "montant": 310000,
      "direction": "DVD",
      "nature": "Investissement",
      "coordinates": {
        "lat": 48.848962,
        "lon": 2.36528
      },
      "adresse": "7 RUE CRILLON 75004 PARIS",
      "codePostal": "75004",
      "commune": "PARIS"
    },
    {
      "id": "2024_09078",
      "annee": 2024,
      "beneficiaire": "EXPERIMENTATION TERRITORIALE CONTRE LE CHOMAGE DE LONGUE DUREE (ETCLD)",
      "siret": "82262630500046",
      "objet": "Contribution au développement de l'emploi 2024",
      "montant": 308982,
      "direction": "DAE",
      "nature": "Fonctionnement",
      "coordinates": {
        "lat": 47.19582,
        "lon": -1.569685
      },
      "adresse": "7 RUE LESCHAUD 44400 REZE",
      "codePostal": "44400",
      "commune": "REZE"
    },
    {
      "id": "2024_09291",
      "annee": 2024,
      "beneficiaire": "URGENCE JEUNES",
      "siret": "40878410600069",
      "objet": "Dispositif lycéens étrangers isolés",
      "montant": 306121,
      "direction": "DSOL",
      "nature": "Fonctionnement",
      "coordinates": {
        "lat": 48.83498,
        "lon": 2.302307
      },
      "adresse": "6-8 6 RUE DE CRONSTADT 75015 PARIS",
      "codePostal": "75015",
      "commune": "PARIS"
    },
    {
      "id": "2024_05673",
      "annee": 2024,
      "beneficiaire": "LE PICOULET - MISSION POPULAIRE XIE",
      "siret": "32582665900022",
      "objet": "DSOL/SDT : dotation globale de fonctionnement Le Picoulet",
      "montant": 305558,
      "direction": "DSOL",
      "nature": "Fonctionnement",
      "coordinates": {
        "lat": 48.868351,
        "lon": 2.374245
      },
      "adresse": "59 RUE DE LA FONTAINE AU ROI 75011 PARIS",
      "codePostal": "75011",
      "commune": "PARIS"
    },
    {
      "id": "2024_06637",
      "annee": 2024,
      "beneficiaire": "ASSOCIATION POUR LE LOGEMENT DES JEUNES TRAVAILLEURS ALJT",
      "siret": "77566643101007",
      "objet": "Demande de subventions de fonctionnement pour les Foyers des Jeunes Travailleurs au titre de l'année",
      "montant": 300600,
      "direction": "DJS",
      "nature": "Fonctionnement",
      "coordinates": {
        "lat": 48.888467,
        "lon": 2.38603
      },
      "adresse": "ALJT SIEGE 21 RUE DES ARDENNES 75019 PARIS",
      "codePostal": "75019",
      "commune": "PARIS"
    },
    {
      "id": "2024_05390",
      "annee": 2024,
      "beneficiaire": "LA CHORBA",
      "siret": "43041135500026",
      "objet": "Renouvellement de la subvention pluriannuelle à l'association d'aide alimentaire La Chorba",
      "montant": 300000,
      "direction": "DSOL",
      "nature": "Fonctionnement",
      "coordinates": {
        "lat": 48.834044,
        "lon": 2.403323
      },
      "adresse": "87 BOULEVARD PONIATOWSKI 75012 PARIS",
      "codePostal": "75012",
      "commune": "PARIS"
    },
    {
      "id": "2024_05483",
      "annee": 2024,
      "beneficiaire": "ASSOCIATION D'ACTION SOCIALE EN FAVEUR DES PERSONNELS DE LA VILLE DE PARIS ET DU DEPARTEMENT DE PARIS ASPP",
      "siret": "32385721900097",
      "objet": "Renouvellement matériel de cuisine selon la convention plurianuelle",
      "montant": 300000,
      "direction": "DRH",
      "nature": "Investissement",
      "coordinates": {
        "lat": 48.87074,
        "lon": 2.343155
      },
      "adresse": "21 RUE D'UZES 75002 PARIS",
      "codePostal": "75002",
      "commune": "PARIS"
    },
    {
      "id": "2024_10410",
      "annee": 2024,
      "beneficiaire": "MAISON DES ADOLESCENTS ROBERT-DEBRE GCSMS",
      "siret": "53814297700023",
      "objet": "Fonctionnement de la Maison des Adolescents R Debré et de son antenne dans le 18ème arrondissement.",
      "montant": 300000,
      "direction": "DSP",
      "nature": "Fonctionnement",
      "coordinates": {
        "lat": 48.879456,
        "lon": 2.401817
      },
      "adresse": "8 AV PORTE PRE ST GERVAIS 75019 PARIS 19",
      "codePostal": "75019",
      "commune": "PARIS 19"
    },
    {
      "id": "2024_12790",
      "annee": 2024,
      "beneficiaire": "REVOIR NOTRE-DAME DE PARIS",
      "siret": "88163512200016.0",
      "objet": "Réouverture Cathédrale Notre-Dame de Paris (écrans)",
      "montant": 300000,
      "direction": "SG",
      "nature": "Projet"
    },
    {
      "id": "2024_01046",
      "annee": 2024,
      "beneficiaire": "THEATRE DE LA VILLE",
      "siret": "77566172100024",
      "objet": "La poésie envahit la ville",
      "montant": 300000,
      "direction": "DAC",
      "nature": "Projet",
      "coordinates": {
        "lat": 48.857346,
        "lon": 2.34779
      },
      "adresse": "ANGL 16 Q DE GESVRES 2 PLACE DU CHATELET 75004 PARIS",
      "codePostal": "75004",
      "commune": "PARIS"
    },
    {
      "id": "2023_07129",
      "annee": 2024,
      "beneficiaire": "PASSERELLES 17, REGIE DE QUARTIER DU 17EME NORD EST",
      "siret": "49421655900034",
      "objet": "BPP 2021 Boutique solidaire",
      "montant": 300000,
      "direction": "DAE",
      "nature": "Investissement",
      "coordinates": {
        "lat": 48.893522,
        "lon": 2.315358
      },
      "adresse": "190 AVENUE DE CLICHY 75017 PARIS",
      "codePostal": "75017",
      "commune": "PARIS"
    },
    {
      "id": "2024_11022",
      "annee": 2024,
      "beneficiaire": "VERS PARIS SANS SIDA",
      "siret": "82377240500044",
      "objet": "Atteindre l'objectif de la fin de la transmission du vih d'ici à fin 2030 (Vers Paris sans sida)",
      "montant": 300000,
      "direction": "DSP",
      "nature": "Projet",
      "coordinates": {
        "lat": 48.869514,
        "lon": 2.354599
      },
      "adresse": "2 BOULEVARD DE STRASBOURG 75010 PARIS",
      "codePostal": "75010",
      "commune": "PARIS"
    },
    {
      "id": "2024_11451",
      "annee": 2024,
      "beneficiaire": "ASSOCIATION POUR LA GESTION DES OEUVRES SOCIALES DES PERSONNELS DES ADMINISTRATIONS PARISIENNES AGOSPAP",
      "siret": "32385717700279",
      "objet": "Action social en faveur des agents - complément",
      "montant": 300000,
      "direction": "DRH",
      "nature": "Fonctionnement",
      "coordinates": {
        "lat": 48.895862,
        "lon": 2.38219
      },
      "adresse": "32 RUE DE CAMBRAI 75019 PARIS",
      "codePostal": "75019",
      "commune": "PARIS"
    },
    {
      "id": "2024_05877",
      "annee": 2024,
      "beneficiaire": "CAISSE DES REGLEMENTS PECUNIAIRES EFFECTUES PAR LES AVOCATS A LA COUR DE PARIS CARPA",
      "siret": "78418121600051",
      "objet": "CONSULTATIONS AVOCATS BARREAU DE PARIS EN MAIRIES D ARRONDISSEMENTS",
      "montant": 296750,
      "direction": "DAJ",
      "nature": "Fonctionnement",
      "coordinates": {
        "lat": 48.894749,
        "lon": 2.311146
      },
      "adresse": "MAISON DES AVOCATS COURS DES AVOCATS 75017 PARIS",
      "codePostal": "75017",
      "commune": "PARIS"
    },
    {
      "id": "2024_05906",
      "annee": 2024,
      "beneficiaire": "ASSOCIATION AURORE",
      "siret": "77568497003594",
      "objet": "ESI CLOS FEUQUIERE",
      "montant": 291903,
      "direction": "DSOL",
      "nature": "Indéterminée",
      "coordinates": {
        "lat": 48.84261,
        "lon": 2.31629
      },
      "adresse": "SIEGE 31 RUE FALGUIERE 75015 PARIS",
      "codePostal": "75015",
      "commune": "PARIS"
    },
    {
      "id": "2024_04329",
      "annee": 2024,
      "beneficiaire": "LA CHORBA",
      "siret": "43041135500026",
      "objet": "Dispositif alimentaire hivernal de La Chorba : distributions de repas chauds au restaurant de l'HDV",
      "montant": 291000,
      "direction": "DSOL",
      "nature": "Fonctionnement",
      "coordinates": {
        "lat": 48.834044,
        "lon": 2.403323
      },
      "adresse": "87 BOULEVARD PONIATOWSKI 75012 PARIS",
      "codePostal": "75012",
      "commune": "PARIS"
    },
    {
      "id": "2024_07313",
      "annee": 2024,
      "beneficiaire": "THEATRE PARIS 14",
      "siret": "35377356700014",
      "objet": "Subvention de fonctionnement 2024 - Théâtre 14 - solde",
      "montant": 290800,
      "direction": "DAC",
      "nature": "Fonctionnement",
      "coordinates": {
        "lat": 48.825896,
        "lon": 2.306846
      },
      "adresse": "20 AVENUE MARC SANGNIER 75014 PARIS",
      "codePostal": "75014",
      "commune": "PARIS"
    },
    {
      "id": "2024_10044",
      "annee": 2024,
      "beneficiaire": "BRUITPARIF - CENTRE D'ÉVALUATION TECHNIQUE DE L'ENVIRONNEMENT SONORE EN ÎLE-DE-FRANCE",
      "siret": "48392121900059",
      "objet": "Suivi du bruit sur le bd périphérique avec la création de la voie dédiée aux transports collectifs",
      "montant": 290000,
      "direction": "DVD",
      "nature": "Investissement",
      "coordinates": {
        "lat": 48.91621,
        "lon": 2.344189
      },
      "adresse": "32 BOULEVARD ORNANO 93200 SAINT-DENIS",
      "codePostal": "93200",
      "commune": "SAINT-DENIS"
    },
    {
      "id": "2024_11278",
      "annee": 2024,
      "beneficiaire": "SOCIETE PHILANTHROPIQUE",
      "siret": "77566653000016",
      "objet": "Fonctionnement ESI Georgette AGUTTE",
      "montant": 281358,
      "direction": "DSOL",
      "nature": "Fonctionnement",
      "coordinates": {
        "lat": 48.858829,
        "lon": 2.323517
      },
      "adresse": "15 RUE DE BELLECHASSE 75007 PARIS",
      "codePostal": "75007",
      "commune": "PARIS"
    },
    {
      "id": "2024_07624",
      "annee": 2024,
      "beneficiaire": "LA MAISON BLEUE ¿ PORTE MONTMARTRE",
      "siret": "79394484400026",
      "objet": "dotation centres sociaux dsol/sepleix",
      "montant": 280406,
      "direction": "DSOL",
      "nature": "Fonctionnement",
      "coordinates": {
        "lat": 48.89989,
        "lon": 2.336155
      },
      "adresse": "24 AVENUE DE LA PORTE DE MONTMARTRE 75018 PARIS",
      "codePostal": "75018",
      "commune": "PARIS"
    },
    {
      "id": "2024_12656",
      "annee": 2024,
      "beneficiaire": "LA MAISON DES BOUT'CHOU",
      "siret": "35118614300175",
      "objet": "complément subvention",
      "montant": 280209,
      "direction": "DFPE",
      "nature": "Fonctionnement",
      "coordinates": {
        "lat": 48.844295,
        "lon": 2.331113
      },
      "adresse": "12 RUE VAVIN 75006 PARIS",
      "codePostal": "75006",
      "commune": "PARIS"
    },
    {
      "id": "2024_05697",
      "annee": 2024,
      "beneficiaire": "ASSOCIATION AURORE",
      "siret": "77568497003594",
      "objet": "KEPES",
      "montant": 278500,
      "direction": "DSOL",
      "nature": "Fonctionnement",
      "coordinates": {
        "lat": 48.84261,
        "lon": 2.31629
      },
      "adresse": "SIEGE 31 RUE FALGUIERE 75015 PARIS",
      "codePostal": "75015",
      "commune": "PARIS"
    },
    {
      "id": "2024_03156",
      "annee": 2024,
      "beneficiaire": "THEATRE DE LA MARIONNETTE A PARIS",
      "siret": "34112346100046",
      "objet": "Acompte 2024 DAC",
      "montant": 276000,
      "direction": "DAC",
      "nature": "Fonctionnement",
      "coordinates": {
        "lat": 48.842211,
        "lon": 2.349834
      },
      "adresse": "73 RUE MOUFFETARD 75005 PARIS",
      "codePostal": "75005",
      "commune": "PARIS"
    },
    {
      "id": "2025_00554",
      "annee": 2024,
      "beneficiaire": "ALTERALIA",
      "siret": "35355631900021",
      "objet": "Projet rue Léon Bollée Paris 13",
      "montant": 271084,
      "direction": "DSOL",
      "nature": "Investissement",
      "coordinates": {
        "lat": 48.91076,
        "lon": 2.380323
      },
      "adresse": "51 RUE DE LA COMMUNE DE PARIS 93300 AUBERVILLIERS",
      "codePostal": "93300",
      "commune": "AUBERVILLIERS"
    },
    {
      "id": "2024_04257",
      "annee": 2024,
      "beneficiaire": "ASSOCIATION AURORE",
      "siret": "77568497003594",
      "objet": "ESI Halte Femmes",
      "montant": 265919,
      "direction": "DSOL",
      "nature": "Fonctionnement",
      "coordinates": {
        "lat": 48.84261,
        "lon": 2.31629
      },
      "adresse": "SIEGE 31 RUE FALGUIERE 75015 PARIS",
      "codePostal": "75015",
      "commune": "PARIS"
    },
    {
      "id": "2024_05221",
      "annee": 2024,
      "beneficiaire": "CEFIA (CENTRE SOCIAL DES EPINETTES FAMILLE INSERTION ACCUEIL)",
      "siret": "39999069600037",
      "objet": "CEFIA//Renouvellement CPO 2024-2026",
      "montant": 265658,
      "direction": "DSOL",
      "nature": "Fonctionnement",
      "coordinates": {
        "lat": 48.895056,
        "lon": 2.317715
      },
      "adresse": "102 RUE DE LA JONQUIERE 75017 PARIS",
      "codePostal": "75017",
      "commune": "PARIS"
    },
    {
      "id": "2024_10383",
      "annee": 2024,
      "beneficiaire": "CENTRE D'ACTION SOCIALE PROTESTANT DANS LA REGION PARISIENNE",
      "siret": "31873216100035",
      "objet": "CRF ESI Maison Dans La Rue",
      "montant": 264754,
      "direction": "DSOL",
      "nature": "Indéterminée",
      "coordinates": {
        "lat": 48.842892,
        "lon": 2.399655
      },
      "adresse": "CASP 20 RUE SANTERRE 75012 PARIS",
      "codePostal": "75012",
      "commune": "PARIS"
    },
    {
      "id": "2024_06989",
      "annee": 2024,
      "beneficiaire": "EMMAUS SOLIDARITE",
      "siret": "31723624800017",
      "objet": "Les Maraudes d'Emmaüs Solidarité",
      "montant": 260740,
      "direction": "DSOL",
      "nature": "Fonctionnement",
      "coordinates": {
        "lat": 48.860017,
        "lon": 2.345244
      },
      "adresse": "32 RUE DES BOURDONNAIS 75001 PARIS",
      "codePostal": "75001",
      "commune": "PARIS"
    },
    {
      "id": "2024_06051",
      "annee": 2024,
      "beneficiaire": "MISSION LOCALE DE PARIS",
      "siret": "53132862300149",
      "objet": "Dynamique Insertion Professionnelle - Accompagnement renforcé des jeunes les plus en difficulté",
      "montant": 257812,
      "direction": "DSOL",
      "nature": "Fonctionnement",
      "coordinates": {
        "lat": 48.889595,
        "lon": 2.363068
      },
      "adresse": "22 RUE PAJOL 75018 PARIS",
      "codePostal": "75018",
      "commune": "PARIS"
    },
    {
      "id": "2024_03560",
      "annee": 2024,
      "beneficiaire": "EMMAUS SOLIDARITE",
      "siret": "31723624800017",
      "objet": "DPH 24 DAE",
      "montant": 257000,
      "direction": "DAE",
      "nature": "Fonctionnement",
      "coordinates": {
        "lat": 48.860017,
        "lon": 2.345244
      },
      "adresse": "32 RUE DES BOURDONNAIS 75001 PARIS",
      "codePostal": "75001",
      "commune": "PARIS"
    },
    {
      "id": "2024_10384",
      "annee": 2024,
      "beneficiaire": "CENTRE D'ACTION SOCIALE PROTESTANT DANS LA REGION PARISIENNE",
      "siret": "31873216100035",
      "objet": "ESI Bonne Nouvelle (DSOL)",
      "montant": 255485,
      "direction": "DSOL",
      "nature": "Fonctionnement",
      "coordinates": {
        "lat": 48.842892,
        "lon": 2.399655
      },
      "adresse": "CASP 20 RUE SANTERRE 75012 PARIS",
      "codePostal": "75012",
      "commune": "PARIS"
    },
    {
      "id": "2024_10343",
      "annee": 2024,
      "beneficiaire": "LE RELAIS 59",
      "siret": "32079817600022",
      "objet": "DSOL/MAVS : subvention de fonctionnement 2024",
      "montant": 253629,
      "direction": "DSOL",
      "nature": "Fonctionnement",
      "coordinates": {
        "lat": 48.845507,
        "lon": 2.375146
      },
      "adresse": "1 RUE HECTOR MALOT 75012 PARIS",
      "codePostal": "75012",
      "commune": "PARIS"
    },
    {
      "id": "2024_08691",
      "annee": 2024,
      "beneficiaire": "ESPACE 19",
      "siret": "32228389600056",
      "objet": "Espce Riquet 1,2,3....19",
      "montant": 251696,
      "direction": "DFPE",
      "nature": "Fonctionnement",
      "coordinates": {
        "lat": 48.895716,
        "lon": 2.374611
      },
      "adresse": "6 RUE HENRI VERNEUIL 75019 PARIS",
      "codePostal": "75019",
      "commune": "PARIS"
    },
    {
      "id": "2024_06610",
      "annee": 2024,
      "beneficiaire": "CONSEIL D'ARCHITECTURE, D'URBANISME ET DE L'ENVIRONNEMENT DE PARIS (CAUE)",
      "siret": "32564612300043",
      "objet": "Subvention de fonctionnement 2024",
      "montant": 250000,
      "direction": "DU",
      "nature": "Fonctionnement",
      "coordinates": {
        "lat": 48.847681,
        "lon": 2.370532
      },
      "adresse": "37 AVENUE LEDRU-ROLLIN 75012 PARIS",
      "codePostal": "75012",
      "commune": "PARIS"
    },
    {
      "id": "2024_11374",
      "annee": 2024,
      "beneficiaire": "ENSEMBLE PARIS EMPLOI COMPETENCES",
      "siret": "48338140600048",
      "objet": "ALLER-VERS L¿EMPLOI DANS LES QUARTIERS",
      "montant": 250000,
      "direction": "DAE",
      "nature": "Projet",
      "coordinates": {
        "lat": 48.885529,
        "lon": 2.390137
      },
      "adresse": "18 RUE GOUBET 75019 PARIS",
      "codePostal": "75019",
      "commune": "PARIS"
    },
    {
      "id": "2023_07259",
      "annee": 2024,
      "beneficiaire": "JARDIN DES TRAVERSES",
      "siret": "90465309400014",
      "objet": "Lauréat du Budget participatif 2022 - Le Jardin des Traverses",
      "montant": 250000,
      "direction": "DEVE",
      "nature": "Investissement",
      "coordinates": {
        "lat": 48.884601,
        "lon": 2.363719
      },
      "adresse": "3 EME ESCALIER 7 BOITE 97 14 BOULEVARD DE LA CHAPELLE 75018 PARIS",
      "codePostal": "75018",
      "commune": "PARIS"
    },
    {
      "id": "2024_00684",
      "annee": 2024,
      "beneficiaire": "CARREFOURS POUR L'EMPLOI, ARMÉES/COLLECTIVITÉS/ENTREPRISES",
      "siret": "43294548300035",
      "objet": "PARIS POUR L'EMPLOI 2024 / FORUMS PARISIENS POUR L'EMPLOI 2024",
      "montant": 250000,
      "direction": "DAE",
      "nature": "Fonctionnement",
      "coordinates": {
        "lat": 48.853989,
        "lon": 2.305537
      },
      "adresse": "ECOLE MILITAIRE 1 PLACE JOFFRE 75007 PARIS",
      "codePostal": "75007",
      "commune": "PARIS"
    },
    {
      "id": "2024_12583",
      "annee": 2024,
      "beneficiaire": "LES HAUTS DE BELLEVILLE",
      "siret": "77569584400024",
      "objet": "LA MJC LES HAUTS DE BELLEVILLE , UN TIERS LIEU ESS/CULTURE/SOCIAL/JEUNESSE",
      "montant": 250000,
      "direction": "DJS",
      "nature": "Fonctionnement",
      "coordinates": {
        "lat": 48.873475,
        "lon": 2.401675
      },
      "adresse": "43 RUE DU BORREGO 75020 PARIS",
      "codePostal": "75020",
      "commune": "PARIS"
    },
    {
      "id": "2024_00754",
      "annee": 2024,
      "beneficiaire": "FORUM DES IMAGES",
      "siret": "33212365200023",
      "objet": "Subvention annuelle d'investissement 2024 - FDI",
      "montant": 249000,
      "direction": "DAE",
      "nature": "Investissement",
      "coordinates": {
        "lat": 48.86196,
        "lon": 2.346687
      },
      "adresse": "FORUM DES HALLES PORTE SAINT-EUSTACHE 75001 PARIS",
      "codePostal": "75001",
      "commune": "PARIS"
    },
    {
      "id": "2024_11343",
      "annee": 2024,
      "beneficiaire": "LE FILON",
      "siret": "82341994000023",
      "objet": "Lauréat du BP2019 : Lieu d'accueil pour les femmes sans-abri et Espace Coworking (DSOL)",
      "montant": 248538,
      "direction": "DSOL",
      "nature": "Investissement",
      "coordinates": {
        "lat": 48.893897,
        "lon": 2.321861
      },
      "adresse": "60 RUE DE LA JONQUIERE 75017 PARIS",
      "codePostal": "75017",
      "commune": "PARIS"
    },
    {
      "id": "2024_03418",
      "annee": 2024,
      "beneficiaire": "RELAIS MENILMONTANT",
      "siret": "30900121200047",
      "objet": "DSOL/SDT : dotation globale de fonctionnement",
      "montant": 247257,
      "direction": "DSOL",
      "nature": "Fonctionnement",
      "coordinates": {
        "lat": 48.873289,
        "lon": 2.391256
      },
      "adresse": "70 RUE DES RIGOLES 75020 PARIS",
      "codePostal": "75020",
      "commune": "PARIS"
    },
    {
      "id": "2024_10453",
      "annee": 2024,
      "beneficiaire": "FOYER DE GRENELLE",
      "siret": "38233811900011",
      "objet": "MAVS - CPO fonctionnement 2024",
      "montant": 245757,
      "direction": "DSOL",
      "nature": "Fonctionnement",
      "coordinates": {
        "lat": 48.847977,
        "lon": 2.297832
      },
      "adresse": "17 RUE DE L'AVRE 75015 PARIS",
      "codePostal": "75015",
      "commune": "PARIS"
    },
    {
      "id": "2024_05667",
      "annee": 2024,
      "beneficiaire": "LEO LAGRANGE NORD - ILE-DE-FRANCE",
      "siret": "31661982400931",
      "objet": "DSOL/SDT : dotation globale de fonctionnement - CSC Noguès",
      "montant": 245376,
      "direction": "DSOL",
      "nature": "Fonctionnement",
      "coordinates": {
        "lat": 49.892262,
        "lon": 2.303174
      },
      "adresse": "27 RUE DE L'AMIRAL COURBET 80000 AMIENS",
      "codePostal": "80000",
      "commune": "AMIENS"
    },
    {
      "id": "2024_05675",
      "annee": 2024,
      "beneficiaire": "CENTRE D'ACTION SOCIALE PROTESTANT DANS LA REGION PARISIENNE",
      "siret": "31873216100035",
      "objet": "DSOL/SDT : Dotation globale de fonctionnement CENTRE SOCIAL LA CLAIRIERE",
      "montant": 244081,
      "direction": "DSOL",
      "nature": "Fonctionnement",
      "coordinates": {
        "lat": 48.842892,
        "lon": 2.399655
      },
      "adresse": "CASP 20 RUE SANTERRE 75012 PARIS",
      "codePostal": "75012",
      "commune": "PARIS"
    },
    {
      "id": "2024_01952",
      "annee": 2024,
      "beneficiaire": "RESEAU MÔM'ARTRE",
      "siret": "50996337700130",
      "objet": "CPO- DFPE - Réseau Môm'artre",
      "montant": 243500,
      "direction": "DFPE",
      "nature": "Fonctionnement",
      "coordinates": {
        "lat": 48.892078,
        "lon": 2.375363
      },
      "adresse": "204 RUE DE CRIMEE 75019 PARIS",
      "codePostal": "75019",
      "commune": "PARIS"
    },
    {
      "id": "2024_11142",
      "annee": 2024,
      "beneficiaire": "LA CHORBA",
      "siret": "43041135500026",
      "objet": "Remplacements estivaux sur le site de Porte de La Villette",
      "montant": 239720,
      "direction": "DSOL",
      "nature": "Fonctionnement",
      "coordinates": {
        "lat": 48.834044,
        "lon": 2.403323
      },
      "adresse": "87 BOULEVARD PONIATOWSKI 75012 PARIS",
      "codePostal": "75012",
      "commune": "PARIS"
    },
    {
      "id": "2024_04707",
      "annee": 2024,
      "beneficiaire": "SOLIDARITE ROQUETTE",
      "siret": "39984846400018",
      "objet": "Fonctionnement 2024 Centre social Solidarité Roquette",
      "montant": 237203,
      "direction": "DSOL",
      "nature": "Fonctionnement",
      "coordinates": {
        "lat": 48.855632,
        "lon": 2.374496
      },
      "adresse": "MME MICHON ANNE 47 RUE DE LA ROQUETTE 75011 PARIS",
      "codePostal": "75011",
      "commune": "PARIS"
    },
    {
      "id": "2024_08382",
      "annee": 2024,
      "beneficiaire": "LA GOUTTE DE LAIT SAINT LEON",
      "siret": "78461542900049",
      "objet": "Fonctionnement annuel de la Goutte de Lait SAINT LEON le petit Francois",
      "montant": 237088,
      "direction": "DFPE",
      "nature": "Fonctionnement",
      "coordinates": {
        "lat": 48.850778,
        "lon": 2.295884
      },
      "adresse": "37 RUE DUPLEIX 75015 PARIS",
      "codePostal": "75015",
      "commune": "PARIS"
    },
    {
      "id": "2024_07810",
      "annee": 2024,
      "beneficiaire": "MISSION LOCALE DE PARIS",
      "siret": "53132862300149",
      "objet": "LUTTE CONTRE LE DECROCHAGE INSTITUTIONNEL DES JEUNES",
      "montant": 236488,
      "direction": "DSOL",
      "nature": "Fonctionnement",
      "coordinates": {
        "lat": 48.889595,
        "lon": 2.363068
      },
      "adresse": "22 RUE PAJOL 75018 PARIS",
      "codePostal": "75018",
      "commune": "PARIS"
    },
    {
      "id": "2024_06545",
      "annee": 2024,
      "beneficiaire": "AIDES",
      "siret": "34949617400047",
      "objet": "Lutte contre le VIH/SIDA et les hépatites Actions de prévention et de soutien (2024)",
      "montant": 235000,
      "direction": "DSP",
      "nature": "Projet",
      "coordinates": {
        "lat": 48.892039,
        "lon": 2.398566
      },
      "adresse": "TOUR ESSOR 14 RUE SCANDICCI 93500 PANTIN",
      "codePostal": "93500",
      "commune": "PANTIN"
    },
    {
      "id": "2024_03143",
      "annee": 2024,
      "beneficiaire": "L'ETOILE DU NORD",
      "siret": "32618492600011",
      "objet": "Acompte 2024 DAC",
      "montant": 234000,
      "direction": "DAC",
      "nature": "Fonctionnement",
      "coordinates": {
        "lat": 48.895559,
        "lon": 2.332942
      },
      "adresse": "16 RUE GEORGETTE AGUTTE 75018 PARIS",
      "codePostal": "75018",
      "commune": "PARIS"
    },
    {
      "id": "2024_06435",
      "annee": 2024,
      "beneficiaire": "ASSOCIATION POUR LE DROIT À L'INITIATIVE ÉCONOMIQUE",
      "siret": "35221687302852",
      "objet": "Réponse AAP Jeunes Pousses 2024-2026",
      "montant": 234000,
      "direction": "DAE",
      "nature": "Fonctionnement",
      "coordinates": {
        "lat": 48.888644,
        "lon": 2.385915
      },
      "adresse": "23 RUE DES ARDENNES 75019 PARIS",
      "codePostal": "75019",
      "commune": "PARIS"
    },
    {
      "id": "2024_04088",
      "annee": 2024,
      "beneficiaire": "PARIS DANCE PROJECT",
      "siret": "92314789600016",
      "objet": "La ville dansée - Olympiade culturelle",
      "montant": 230000,
      "direction": "DAC",
      "nature": "Projet",
      "coordinates": {
        "lat": 48.851023,
        "lon": 2.309666
      },
      "adresse": "31 AVENUE DE SEGUR 75007 PARIS",
      "codePostal": "75007",
      "commune": "PARIS"
    },
    {
      "id": "2024_03137",
      "annee": 2024,
      "beneficiaire": "HALLE SAINT PIERRE",
      "siret": "33457081900014",
      "objet": "Acompte 2024 DAC",
      "montant": 228000,
      "direction": "DAC",
      "nature": "Fonctionnement",
      "coordinates": {
        "lat": 48.885014,
        "lon": 2.344306
      },
      "adresse": "2 RUE RONSARD 75018 PARIS",
      "codePostal": "75018",
      "commune": "PARIS"
    },
    {
      "id": "2024_05297",
      "annee": 2024,
      "beneficiaire": "L'ECOLE NORMALE SOCIALE",
      "siret": "30903277900022",
      "objet": "DSOL/SDT: dotation globale de fonctionnement",
      "montant": 227558,
      "direction": "DSOL",
      "nature": "Fonctionnement",
      "coordinates": {
        "lat": 48.891188,
        "lon": 2.365203
      },
      "adresse": "2 RUE DE TORCY 75018 PARIS",
      "codePostal": "75018",
      "commune": "PARIS"
    },
    {
      "id": "2024_05677",
      "annee": 2024,
      "beneficiaire": "DUMAS REUNION",
      "siret": "48463084300023",
      "objet": "DSOL/SDT dotation globale de fonctionnement",
      "montant": 226817,
      "direction": "DSOL",
      "nature": "Fonctionnement",
      "coordinates": {
        "lat": 48.854464,
        "lon": 2.402911
      },
      "adresse": "65 RUE DES HAIES 75020 PARIS",
      "codePostal": "75020",
      "commune": "PARIS"
    },
    {
      "id": "2024_05615",
      "annee": 2024,
      "beneficiaire": "LE STADE FRANCAIS",
      "siret": "30299790300026",
      "objet": "Subvention d'objectif et de fonctionnement",
      "montant": 225000,
      "direction": "DJS",
      "nature": "Fonctionnement",
      "coordinates": {
        "lat": 48.838918,
        "lon": 2.251869
      },
      "adresse": "2 RUE DU CDT GUILBAUD 75016 PARIS 16",
      "codePostal": "75016",
      "commune": "PARIS 16"
    },
    {
      "id": "2024_02788",
      "annee": 2024,
      "beneficiaire": "LA PASSERELLE",
      "siret": "37974428700044",
      "objet": "Subvention de fonctionnement 2024",
      "montant": 222663,
      "direction": "DFPE",
      "nature": "Fonctionnement",
      "coordinates": {
        "lat": 48.824339,
        "lon": 2.347659
      },
      "adresse": "42 RUE DE LA COLONIE 75013 PARIS",
      "codePostal": "75013",
      "commune": "PARIS"
    },
    {
      "id": "2024_05666",
      "annee": 2024,
      "beneficiaire": "ASSOCIATION BELLE VILLE ABV",
      "siret": "42210748200016",
      "objet": "DSOL/SDT : dotation globale de fonctionnement",
      "montant": 221462,
      "direction": "DSOL",
      "nature": "Fonctionnement",
      "coordinates": {
        "lat": 48.873844,
        "lon": 2.377514
      },
      "adresse": "17 RUE JULES ROMAINS 75019 PARIS",
      "codePostal": "75019",
      "commune": "PARIS"
    },
    {
      "id": "2024_11927",
      "annee": 2024,
      "beneficiaire": "COMITE CHAMPS ELYSEES",
      "siret": "39848487300037",
      "objet": "Demande de subvention Illuminations 2024",
      "montant": 220000,
      "direction": "DAE",
      "nature": "Investissement",
      "coordinates": {
        "lat": 48.869965,
        "lon": 2.308164
      },
      "adresse": "34 AVENUE DES CHAMPS ELYSEES 75008 PARIS",
      "codePostal": "75008",
      "commune": "PARIS"
    },
    {
      "id": "2024_10741",
      "annee": 2024,
      "beneficiaire": "EMMAUS SOLIDARITE",
      "siret": "31723624800017",
      "objet": "CHU VALADON TRAVAUX",
      "montant": 218810,
      "direction": "DSOL",
      "nature": "Investissement",
      "coordinates": {
        "lat": 48.860017,
        "lon": 2.345244
      },
      "adresse": "32 RUE DES BOURDONNAIS 75001 PARIS",
      "codePostal": "75001",
      "commune": "PARIS"
    },
    {
      "id": "2024_05850",
      "annee": 2024,
      "beneficiaire": "13 POUR TOUS",
      "siret": "48905531900029",
      "objet": "Subvention de fonctionnement DSOL",
      "montant": 218355,
      "direction": "DSOL",
      "nature": "Fonctionnement",
      "coordinates": {
        "lat": 48.821252,
        "lon": 2.364572
      },
      "adresse": "4 PLACE DE VENETIE 75013 PARIS",
      "codePostal": "75013",
      "commune": "PARIS"
    },
    {
      "id": "2024_06727",
      "annee": 2024,
      "beneficiaire": "ASSOCIATION FRANCO ASIATIQUE POUR L'ENFANCE  AFAPE",
      "siret": "48262306300013",
      "objet": "BP 2024 creche Franco asiatique",
      "montant": 215679,
      "direction": "DFPE",
      "nature": "Fonctionnement",
      "coordinates": {
        "lat": 48.872162,
        "lon": 2.373266
      },
      "adresse": "10 RUE DU BUISSON SAINT-LOUIS 75010 PARIS",
      "codePostal": "75010",
      "commune": "PARIS"
    },
    {
      "id": "2024_05273",
      "annee": 2024,
      "beneficiaire": "ASSOCIATION CRECHE AVENIR",
      "siret": "33973531800018",
      "objet": "SUBVENTIONS DE FONCTIONNEMENT  2024",
      "montant": 215058,
      "direction": "DFPE",
      "nature": "Fonctionnement",
      "coordinates": {
        "lat": 48.890379,
        "lon": 2.385889
      },
      "adresse": "29 RUE DE THIONVILLE 75019 PARIS",
      "codePostal": "75019",
      "commune": "PARIS"
    },
    {
      "id": "2024_07552",
      "annee": 2024,
      "beneficiaire": "JAURÈS PANTIN PETIT (J2P)",
      "siret": "41225455900013",
      "objet": "DSOL-MAVS FONCTIONNEMENT 2024",
      "montant": 214315,
      "direction": "DSOL",
      "nature": "Fonctionnement",
      "coordinates": {
        "lat": 48.884709,
        "lon": 2.382228
      },
      "adresse": "CHEZ JC CASASNOVAS 32 RUE PETIT 75019 PARIS",
      "codePostal": "75019",
      "commune": "PARIS"
    },
    {
      "id": "2024_03433",
      "annee": 2024,
      "beneficiaire": "INTERFACE FORMATION",
      "siret": "40218568000020",
      "objet": "IAE BIAE (DAE)",
      "montant": 213000,
      "direction": "DAE",
      "nature": "Fonctionnement",
      "coordinates": {
        "lat": 48.889069,
        "lon": 2.348432
      },
      "adresse": "41 RUE LABAT 75018 PARIS",
      "codePostal": "75018",
      "commune": "PARIS"
    },
    {
      "id": "2024_06015",
      "annee": 2024,
      "beneficiaire": "ACCUEIL GOUTTE D'OR",
      "siret": "40864600800057",
      "objet": "Dotation animation globale 2024 - DSOL",
      "montant": 211200,
      "direction": "DSOL",
      "nature": "Fonctionnement",
      "coordinates": {
        "lat": 48.887907,
        "lon": 2.354307
      },
      "adresse": "26 RUE DE LAGHOUAT 75018 PARIS",
      "codePostal": "75018",
      "commune": "PARIS"
    },
    {
      "id": "2024_06841",
      "annee": 2024,
      "beneficiaire": "CRECHE GAN MENAHEM",
      "siret": "34830108600024",
      "objet": "GAN MENAHEM - Crèche GAN ZALMI",
      "montant": 210225,
      "direction": "DFPE",
      "nature": "Fonctionnement",
      "coordinates": {
        "lat": 48.894543,
        "lon": 2.365982
      },
      "adresse": "2 RUE TRISTAN TZARA 75018 PARIS",
      "codePostal": "75018",
      "commune": "PARIS"
    },
    {
      "id": "2024_06357",
      "annee": 2024,
      "beneficiaire": "ESPACE 19",
      "siret": "32228389600056",
      "objet": "Fonctionnement de la structure EspaceLudo dans le cadre de la convention 2022 2024",
      "montant": 210000,
      "direction": "DFPE",
      "nature": "Fonctionnement",
      "coordinates": {
        "lat": 48.895716,
        "lon": 2.374611
      },
      "adresse": "6 RUE HENRI VERNEUIL 75019 PARIS",
      "codePostal": "75019",
      "commune": "PARIS"
    },
    {
      "id": "2024_05950",
      "annee": 2024,
      "beneficiaire": "IRAEC - INSTITUT DE RECHERCHE APPLIQUEE POUR L'ENFANT ET LE COUPLE",
      "siret": "30583930000020",
      "objet": "Iraec 2024",
      "montant": 210000,
      "direction": "DFPE",
      "nature": "Fonctionnement",
      "coordinates": {
        "lat": 48.893069,
        "lon": 2.330202
      },
      "adresse": "41 RUE JOSEPH DE MAISTRE 75018 PARIS",
      "codePostal": "75018",
      "commune": "PARIS"
    },
    {
      "id": "2024_04851",
      "annee": 2024,
      "beneficiaire": "ACTIONS ET RESSOURCES POUR L'INCLUSION SOCIALE PAR LE SOIN ET L'EDUCATION (A.R.I.S.S.E)",
      "siret": "33246803200070",
      "objet": "PETIT PRINCE LUMIERE -demande de subventions 2024",
      "montant": 209120,
      "direction": "DFPE",
      "nature": "Fonctionnement",
      "coordinates": {
        "lat": 48.774994,
        "lon": 2.161443
      },
      "adresse": "10 CHEMIN DE LA BUTTE AU BEURRE 78350 JOUY-EN-JOSAS",
      "codePostal": "78350",
      "commune": "JOUY-EN-JOSAS"
    },
    {
      "id": "2024_05944",
      "annee": 2024,
      "beneficiaire": "LA GOUTTE DE LAIT SAINT LEON",
      "siret": "78461542900049",
      "objet": "Fonctionnement annuel de la Goutte de Lait SAINT LEON - LE PETIT GEORGES",
      "montant": 209038,
      "direction": "DFPE",
      "nature": "Fonctionnement",
      "coordinates": {
        "lat": 48.850778,
        "lon": 2.295884
      },
      "adresse": "37 RUE DUPLEIX 75015 PARIS",
      "codePostal": "75015",
      "commune": "PARIS"
    },
    {
      "id": "2024_03441",
      "annee": 2024,
      "beneficiaire": "OZAR HATORAH PARIS 13 CRÈCHE",
      "siret": "83290339700012",
      "objet": "FONCTIONNEMENT 2024 DE LA CRECHE OZAR HATORAH  PARIS 13",
      "montant": 208095,
      "direction": "DFPE",
      "nature": "Fonctionnement",
      "coordinates": {
        "lat": 48.833541,
        "lon": 2.348751
      },
      "adresse": "31 RUE DES CORDELIERES 75013 PARIS",
      "codePostal": "75013",
      "commune": "PARIS"
    },
    {
      "id": "2024_04628",
      "annee": 2024,
      "beneficiaire": "HALTE AIDE AUX FEMMES BATTUES",
      "siret": "33367645000021",
      "objet": "ESPACE SOLIDARITE INSERTION",
      "montant": 208033,
      "direction": "DSOL",
      "nature": "Fonctionnement",
      "coordinates": {
        "lat": 48.854636,
        "lon": 2.411901
      },
      "adresse": "14 RUE MENDELSSOHN 75020 PARIS",
      "codePostal": "75020",
      "commune": "PARIS"
    },
    {
      "id": "2024_05671",
      "annee": 2024,
      "beneficiaire": "ESPACE 19",
      "siret": "32228389600056",
      "objet": "DSOL/SDT : dotation globale de fonctionnement Espace 19 Cambrai",
      "montant": 207728,
      "direction": "DSOL",
      "nature": "Fonctionnement",
      "coordinates": {
        "lat": 48.895716,
        "lon": 2.374611
      },
      "adresse": "6 RUE HENRI VERNEUIL 75019 PARIS",
      "codePostal": "75019",
      "commune": "PARIS"
    },
    {
      "id": "2024_03100",
      "annee": 2024,
      "beneficiaire": "ASSOCIATION REGIONALE POUR L'INSERTION ECONOMIQUE ET SOCIALE",
      "siret": "42156728000027",
      "objet": "IAE BIAE (DAE",
      "montant": 207000,
      "direction": "DAE",
      "nature": "Fonctionnement",
      "coordinates": {
        "lat": 48.638587,
        "lon": 2.342211
      },
      "adresse": "1 RUE ANNE FRANK 91700 SAINTE-GENEVIEVE-DES-BOIS",
      "codePostal": "91700",
      "commune": "SAINTE-GENEVIEVE-DES-BOIS"
    },
    {
      "id": "2024_06007",
      "annee": 2024,
      "beneficiaire": "OEUVRE DE SECOURS AUX ENFANTS",
      "siret": "77568133100176",
      "objet": "Maison des sources",
      "montant": 204987,
      "direction": "DFPE",
      "nature": "Fonctionnement",
      "coordinates": {
        "lat": 48.871274,
        "lon": 2.374546
      },
      "adresse": "117 RUE DU FAUBOURG DU TEMPLE 75010 PARIS",
      "codePostal": "75010",
      "commune": "PARIS"
    },
    {
      "id": "2024_10807",
      "annee": 2024,
      "beneficiaire": "CENTRE D'ACTION SOCIALE PROTESTANT DANS LA REGION PARISIENNE",
      "siret": "31873216100035",
      "objet": "CASP CHU Bourg-la-Reine",
      "montant": 204600,
      "direction": "DSOL",
      "nature": "Fonctionnement",
      "coordinates": {
        "lat": 48.842892,
        "lon": 2.399655
      },
      "adresse": "CASP 20 RUE SANTERRE 75012 PARIS",
      "codePostal": "75012",
      "commune": "PARIS"
    },